"ent","sigle","siteID","siteName","lon","lat","elev","poldiv1","region","nsample","ndate","clammodel","use","upperdepth","lowerdepth"
1,"ADANGE",1,"Adange",41.333333,43.305556,1750,"GEO","Georgia",40,3,2,2,NA,NA
2,"AGE",2,"Ageröds Mosse",13.416667,55.833333,58,"SWE","Sweden",135,21,2,2,NA,NA
3,"AHL5",3,"Ahlenmoor",8.729167,53.710556,3,"DEU","Germany",50,2,2,2,NA,NA
4,"AKUV",4,"Akuvaara",27.683333,69.125,170,"FIN","Finland",34,5,2,2,NA,NA
5,"AMTKEL",5,"Amtkel",41.308333,43.268056,1830,"GEO","Georgia",14,2,1,2,NA,NA
6,"ARTSLOUG",6,"Arts Lough",-6.433333,52.95,490,"IRL","Ireland",30,5,2,2,NA,80
7,"BALLIN",7,"Ballinloghig Lake",-10.308333,52.2,84,"IRL","Ireland",68,11,2,2,NA,NA
8,"BALLYBET",8,"Ballybetagh",-6.25,53.166667,250,"IRL","Ireland",36,6,2,2,NA,NA
9,"BRUVAT",9,"Bruvatnet",28.416667,70.183333,119,"NOR","Norway",40,5,2,2,NA,NA
10,"CARNINO",10,"Selle di Carnino",7.694444,44.15,1905,"ITA","Italy",69,5,2,2,35,435
11,"CHABADA2",11,"Chabada Lake",129.366667,61.983333,290,"RUS","Russia",116,0,1,2,NA,NA
12,"CHERNIH",12,"Chernikhovo",26.433333,53.416667,168,"BLR","Belarus",52,4,2,2,NA,NA
13,"CHIVRES",13,"Le Marais St Boetien",3.816667,49.616667,73,"FRA","France",30,6,2,2,NA,NA
14,"CS-4",14,"Voros-mocsar",19.190833,46.477222,91,"HUN","Hungary",18,5,1,2,NA,NA
15,"CTAR",15,"Starniki",26.016667,50.266667,198,"UKR","Ukraine",30,10,2,2,NA,NA
16,"DERPUT",16,"Derput",124.116667,57.033333,700,"RUS","Russia",52,5,1,2,NA,NA
17,"DOMSV",17,"Domsvatnet",31.033333,70.316667,120,"NOR","Norway",37,5,2,2,NA,NA
18,"AVRIG1",18,"Avrig",24.383333,45.716667,400,"ROU","Romania",151,13,1,2,NA,NA
19,"EDESSA",19,"Edessa",21.9525,40.818056,350,"GRC","Greece",38,8,1,2,NA,NA
20,"GAGRA",20,"Gagra",40.266667,43.283333,4,"GEO","Georgia",61,2,1,2,NA,NA
21,"GELMT",21,"Gel'myazevskoye",31.833333,49.666667,120,"UKR","Ukraine",21,7,2,2,NA,360
22,"GRASVATN",22,"Grasvatn",8.7,63.7,45,"NOR","Norway",45,8,2,1,NA,NA
23,"IVAN3",23,"Ivanovskoye Peat Bog",38.766667,56.816667,141,"RUS","Russia",33,8,1,2,NA,NA
24,"KALSA",24,"Kalsa Mire",27.45,58.166667,38,"EST","Estonia",69,12,1,2,NA,NA
25,"KAMEN",25,"Kamenicky",15.966667,49.733333,624,"CZE","Czech Republic",29,9,2,2,0,127.5
26,"KANSJON",26,"Kansjon",14.533333,57.633333,308,"SWE","Sweden",45,12,2,2,NA,460
27,"KARASYE",27,"Karas'e Lake",70.22,53.03,435,"KAZ","Kazakhstan",38,6,1,2,NA,NA
28,"AVRIG2",18,"Avrig",24.383333,45.716667,400,"ROU","Romania",113,4,2,2,NA,NA
29,"KHOCHO",29,"Khocho",136.233333,71.05,6,"RUS","Russia",33,0,NA,NA,NA,NA
30,"KHOMUST",30,"Khomustakh Lake",121.62,63.82,120,"RUS","Russia",73,9,1,2,NA,NA
31,"KIRIKU",31,"Kirikumae",27.25,57.666667,183,"EST","Estonia",89,6,2,2,NA,720
32,"KOTYRKOL",32,"Kotyrkol' Peat Bog",70.416667,52.966667,439,"KAZ","Kazakhstan",22,8,1,2,NA,NA
33,"LAGOAJO",33,"Lago de Ajo",-6.15,43.05,1570,"ESP","Spain",78,6,1,2,NA,NA
34,"MADJAGA",34,"Lake Madjagara",120.966667,64.833333,160,"RUS","Russia",66,7,1,2,NA,NA
35,"MOHOS1",28,"Mohos",25.916667,46.083333,1050,"ROU","Romania",202,16,1,2,NA,NA
36,"MOHOS2",28,"Mohos",25.916667,46.083333,1050,"ROU","Romania",123,6,1,2,NA,NA
37,"BARHEIA",35,"Barheivatn",19.85,69.7,317,"NOR","Norway",41,0,2,2,NA,NA
38,"BRURSKAR",36,"Brurskardtjorni",8.666667,61.416667,1309,"NOR","Norway",61,6,2,2,NA,NA
39,"DALMUT",37,"Dalmutladdo",20.716667,69.166667,355,"NOR","Norway",72,11,2,2,NA,NA
40,"OZERKI",40,"Ozerki",80.466667,50.416667,227,"KAZ","Kazakhstan",48,10,1,2,NA,NA
41,"PASHENN",41,"Pashennoe",75.4,49.37,871,"KAZ","Kazakhstan",34,12,1,2,NA,NA
42,"PURTAZ",42,"Pur-Taz Peatland",79.733333,66.7,50,"RUS","Russia",70,5,1,2,NA,NA
43,"SAMAND",43,"Samandon",136.25,70.766667,10,"RUS","Russia",28,0,NA,NA,NA,NA
44,"SANABRIA",44,"Sanabria Marsh",-6.733333,42.1,1050,"ESP","Spain",97,8,1,2,NA,NA
45,"SUOLLAKH",45,"Suollakh",123.85,57.05,810,"RUS","Russia",51,8,1,2,NA,NA
46,"SVERDRUP",46,"Sverdrup",79.5,74.5,7,"RUS","Russia",8,3,1,2,NA,NA
47,"A159",47,"Black Sea (Southwest 1)",28.916667,42.184167,0,"BGR","Bulgaria",22,3,1,2,NA,NA
48,"ABBOREG",48,"Aborregöl",16.15,57.2,78,"SWE","Sweden",20,0,NA,NA,NA,NA
49,"ACHIT8",49,"Achit-Nur",90.6,49.5,1435,"MNG","Mongolia",20,4,NA,NA,NA,NA
50,"ADATEPE",50,"Akgöl Adatepe",30.566667,41.033333,8,"TUR","Turkey",4,0,NA,NA,NA,NA
51,"AE1",51,"Aegelsee",7.543611,46.648611,989,"CHE","Switzerland",100,0,NA,NA,NA,NA
52,"AF1970",52,"Abernethy Forest",-3.710556,57.235278,225,"GBR","United Kingdom",41,0,1,1,NA,NA
53,"AF1974",52,"Abernethy Forest",-3.710556,57.235278,225,"GBR","United Kingdom",49,7,2,2,NA,NA
54,"AHOLAMMI",53,"Aholami",25.216667,61.883333,114,"FIN","Finland",46,3,1,2,NA,1180
55,"AIG_HOU",54,"Aiguillettes des Ouches",6.840278,45.919444,1492,"FRA","France",28,0,NA,NA,NA,NA
56,"ALGENDAR",55,"Algendar",3.958611,39.940556,21,"ESP","Spain",137,4,1,2,NA,NA
57,"ALLOS",56,"Plan du Laus",6.702222,44.241667,2121,"FRA","France",72,6,2,2,NA,NA
58,"ALSA",57,"Alsa",-4.016667,43.117778,560,"ESP","Spain",24,3,1,2,NA,NA
59,"AMBY86",58,"Hières sur Amby",5.283333,45.790833,227,"FRA","France",183,3,2,2,NA,NA
60,"AMPOIX",59,"Ampoix",2.933333,45.633333,1015,"FRA","France",120,5,1,2,NA,NA
61,"AMSOPO1",60,"Amsoldingersee",7.576944,46.722778,641,"CHE","Switzerland",23,0,NA,NA,NA,NA
62,"AMSOPO2",60,"Amsoldingersee",7.576944,46.722778,641,"CHE","Switzerland",24,3,2,2,780,860
63,"AMSOPO3",60,"Amsoldingersee",7.576944,46.722778,641,"CHE","Switzerland",52,3,2,2,250,1200
64,"AMTKEL1",61,"Amtkel 1",41.291667,43.283333,1860,"GEO","Georgia",24,5,1,2,NA,NA
65,"AMTKEL2",62,"Amtkel 2",41.284167,43.291667,1850,"GEO","Georgia",9,1,1,2,NA,NA
66,"AMTKEL3",63,"Amtkel 3",41.291667,43.266667,1860,"GEO","Georgia",8,3,1,2,NA,NA
67,"ANFSHEIL",64,"Allt na Feithe Sheilich",-3.9,57.316667,595,"GBR","United Kingdom",49,2,1,2,NA,200
68,"ANTAS",65,"Antas",-1.823611,37.208333,0,"ESP","Spain",195,6,1,2,NA,NA
69,"ANTU",66,"Åntu Sinijarv",26.325833,59.133333,95,"EST","Estonia",54,9,2,2,NA,NA
70,"AR1",67,"Arkutino Lake",27.733333,42.366667,0,"BGR","Bulgaria",51,4,1,2,NA,NA
71,"AR2",67,"Arkutino Lake",27.733333,42.366667,0,"BGR","Bulgaria",73,7,1,2,NA,NA
72,"ARAL86",68,"Lake Aral",59.983333,44.42,53,"UZB","Uzbekistan",33,0,NA,NA,NA,NA
73,"ARC",69,"Plan Dechaud",6.830833,45.567222,2175,"FRA","France",33,0,NA,NA,NA,NA
74,"ARONDE",70,"Aronde",2.691111,49.4625,50,"FRA","France",46,3,1,2,NA,NA
75,"ARREO03",71,"Lago de Arreo",-2.983333,42.783333,650,"ESP","Spain",8,0,NA,NA,NA,NA
76,"ARS1",72,"Lake Varna (Arsenala)",27.833333,43.2,0,"BGR","Bulgaria",27,4,1,2,NA,NA
77,"ASBOTOR",73,"Åsbotorpsjön",13.833333,58.416667,280,"SWE","Sweden",35,9,2,2,NA,NA
78,"ATTEKOP",74,"Atteköps Mosse",12.883333,56.383333,185,"SWE","Sweden",27,3,NA,NA,NA,NA
79,"ATW",75,"Altenweiher",6.994444,48.013333,926,"FRA","France",113,8,1,2,NA,NA
80,"ATXURI01",76,"Atxuri",-1.55,43.25,500,"ESP","Spain",33,2,1,2,NA,NA
81,"AUNEAU",77,"Auneau",1.793611,48.456111,127,"FRA","France",64,4,1,2,NA,NA
82,"AVLAN",78,"Avlan Gölü",29.95,36.583333,1026,"TUR","Turkey",25,0,NA,NA,NA,NA
83,"BABOZ1",79,"Babozero",37.516667,66.375,138,"RUS","Russia",11,3,2,2,NA,NA
84,"BADENTAR",80,"Badentarbat",-5.366111,58.035833,23,"GBR","United Kingdom",13,2,1,1,NA,NA
85,"BAIDARA",81,"Baidara",66.9,68.85,30,"RUS","Russia",67,10,1,2,NA,NA
86,"BALIKH",82,"Balikh",39.083333,36.516667,324,"SYR","Syrian Arab Republic",10,0,NA,NA,NA,NA
87,"BASVILLE",83,"Basse-Ville",-1.858056,47.186111,1,"FRA","France",114,5,1,2,NA,NA
88,"BEANRIG",84,"Beanrig Moss",-2.765833,55.555,242,"GBR","United Kingdom",45,0,NA,NA,NA,NA
89,"BEBR5",85,"Bebrukas Lake",24.121111,54.085278,149,"LTU","Lithuania",50,14,2,2,NA,880
90,"BEBUCH1",86,"Bois de Buchelbush",5.829722,49.713889,375,"BEL","Belgium",76,0,NA,NA,NA,NA
91,"BEBUCH2",86,"Bois de Buchelbush",5.829722,49.713889,375,"BEL","Belgium",21,0,NA,NA,NA,NA
92,"BEBUCH5",86,"Bois de Buchelbush",5.829722,49.713889,375,"BEL","Belgium",11,0,NA,NA,NA,NA
93,"BEBUZDEN",87,"Buzenol",5.608889,49.625,265,"BEL","Belgium",4,0,NA,NA,NA,NA
94,"BEDLNO",88,"Bedlno",20.283333,51.204167,227,"POL","Poland",69,0,NA,NA,NA,NA
95,"BEETHECR",89,"Ethe source du Cron",5.595,49.606667,245,"BEL","Belgium",8,0,NA,NA,NA,NA
96,"BEHEIDEK",90,"Tontelange Heideknapp",5.82,49.719444,325,"BEL","Belgium",37,0,NA,NA,NA,NA
97,"BELATE01",91,"Puerto de Belate",-2.05,43.033333,847,"ESP","Spain",60,3,1,2,NA,NA
98,"BELATE05",91,"Puerto de Belate",-2.05,43.033333,847,"ESP","Spain",35,0,1,2,NA,NA
99,"BELL",92,"Bellefontaine",6.093056,46.575278,1093,"FRA","France",144,1,2,2,NA,NA
100,"BELLE",93,"Belle Lake",-7.033333,52.183333,33,"IRL","Ireland",49,8,2,2,NA,NA
101,"BEMUNO",94,"Bois des Amerois",5.129167,49.743889,415,"BEL","Belgium",68,1,1,1,NA,NA
102,"BEORV622",95,"Abbaye d'Orval",5.347222,49.641944,215,"BEL","Belgium",5,0,NA,NA,NA,NA
103,"BEORV623",95,"Abbaye d'Orval",5.347222,49.641944,215,"BEL","Belgium",5,0,NA,NA,NA,NA
104,"BEORV624",95,"Abbaye d'Orval",5.347222,49.641944,215,"BEL","Belgium",20,0,NA,NA,NA,NA
105,"BEORV641",95,"Abbaye d'Orval",5.347222,49.641944,215,"BEL","Belgium",22,0,NA,NA,NA,NA
106,"BEORV642",95,"Abbaye d'Orval",5.347222,49.641944,215,"BEL","Belgium",6,0,NA,NA,NA,NA
107,"BEORV643",95,"Abbaye d'Orval",5.347222,49.641944,215,"BEL","Belgium",4,0,NA,NA,NA,NA
108,"BEORV644",95,"Abbaye d'Orval",5.347222,49.641944,215,"BEL","Belgium",5,0,NA,NA,NA,NA
109,"BEORVA63",95,"Abbaye d'Orval",5.347222,49.641944,215,"BEL","Belgium",30,0,NA,NA,NA,NA
110,"BERGAKYL",96,"Bergakyllen",16.15,57.166667,73,"SWE","Sweden",28,5,2,2,NA,9400
111,"BERING",97,"Bering Island",166.1,55,8,"RUS","Russia",16,0,NA,NA,NA,NA
112,"BERLARE",98,"Berlare",3.981667,51.038056,2,"BEL","Belgium",38,1,NA,NA,NA,NA
113,"BESBOG",99,"Besbog",23.666667,41.75,2240,"BGR","Bulgaria",30,4,1,2,NA,NA
114,"BEYSEHIR",100,"Beysehir Gölü I",31.5,37.541667,1120,"TUR","Turkey",39,2,1,2,NA,NA
115,"BEZDON",101,"Bezdonnoe",32.766667,62.033333,121,"RUS","Russia",53,3,2,2,NA,NA
116,"BEZYMIAN",102,"Bezymiannoe",30.000278,54.216667,190,"BLR","Belarus",26,0,1,2,NA,235
117,"BIOT",103,"Biot",7.1,43.8,863,"FRA","France",92,6,1,2,NA,NA
118,"BJARHG",104,"Bjärsjöholmssjön",13.783333,55.45,50,"SWE","Sweden",118,0,1,2,NA,NA
119,"BJARSJON",105,"Bjarsjon",13.666667,58.333333,255,"SWE","Sweden",50,7,NA,NA,NA,NA
120,"BJORKE69",106,"Björkedöds Mosse",12.5,56.283333,75,"SWE","Sweden",35,3,NA,NA,NA,NA
121,"BJORKSJO",107,"Bjorksjodamm",12.393056,57.705556,87,"SWE","Sweden",38,5,2,2,NA,NA
122,"BLATO1",108,"Blato",15.191667,49.041667,645,"CZE","Czech Republic",60,2,2,2,0,295
123,"BLATO2",108,"Blato",15.191667,49.041667,645,"CZE","Czech Republic",66,0,NA,NA,NA,NA
124,"BLAVASS",109,"Blavasstjonn",11.666667,64.916667,92,"NOR","Norway",37,4,2,2,NA,NA
125,"BLEDOWO3",110,"Bledowo Lake",20.666667,52.55,78,"POL","Poland",294,4,2,2,NA,NA
126,"BLKLOCH2",111,"Black Loch",-3.194722,56.320833,90,"GBR","United Kingdom",5,0,NA,NA,NA,NA
127,"BLKLOCH4",111,"Black Loch",-3.194722,56.320833,90,"GBR","United Kingdom",5,14,1,1,NA,NA
128,"BLOMOY",112,"Blomoy",4.883333,60.533333,36,"NOR","Norway",18,4,2,2,200,NA
129,"BLUS",113,"Blusovie",41.158333,43.683333,2884,"RUS","Russia",10,0,1,1,NA,NA
130,"BOBRIZA",114,"Lake Bobriza",28.8,54.95,175,"BLR","Belarus",20,0,NA,NA,NA,NA
131,"BOGDAN",115,"Bogdanovskoe Lake",29.666667,54.3,180,"BLR","Belarus",61,0,NA,NA,NA,NA
132,"BOGUDA",116,"Lake Boguda",123.25,63.666667,120,"RUS","Russia",58,7,1,2,NA,NA
133,"BOHNIGSE",117,"Boehnigsee Goldmoos",7.844166,46.256111,2100,"CHE","Switzerland",94,4,2,2,0,603
134,"BORR-LG",118,"Loch Borralan",-4.999167,58.044167,139,"GBR","United Kingdom",47,0,NA,NA,NA,NA
135,"BORR-PG",118,"Loch Borralan",-4.999167,58.044167,139,"GBR","United Kingdom",33,0,NA,NA,NA,NA
136,"BOUARA",119,"Bouara",41.183333,35.233333,210,"SYR","Syrian Arab Republic",38,1,1,2,NA,NA
137,"BOZOVA",120,"Bozova Lake",38.516667,37.35,592,"TUR","Turkey",10,0,NA,NA,NA,NA
138,"BRASPART",121,"Saint Michel de Braspart",-3.666667,48.416667,150,"FRA","France",37,2,1,2,NA,NA
139,"BREDCOUN",122,"Brede Bridge",0.599722,50.928611,2,"GBR","United Kingdom",116,2,1,2,NA,NA
140,"BRESLES",123,"Tourbière de Bresles",2.25,49.4,50,"FRA","France",25,0,NA,NA,NA,NA
141,"BSCUL",124,"Ballyscullion East",-6.433333,54.8,50,"GBR","United Kingdom",60,0,NA,NA,NA,NA
142,"BUGRIST",125,"Bugristoe",85.166667,58.25,100,"RUS","Russia",67,5,1,2,NA,NA
143,"BURG-0",126,"Burgmoos",7.674444,47.172222,465,"CHE","Switzerland",1,0,NA,NA,NA,NA
144,"BURG1",126,"Burgmoos",7.674444,47.172222,465,"CHE","Switzerland",1,0,NA,NA,NA,NA
145,"BURG11",126,"Burgmoos",7.674444,47.172222,465,"CHE","Switzerland",13,0,NA,NA,NA,NA
146,"BURG3",126,"Burgmoos",7.674444,47.172222,465,"CHE","Switzerland",10,0,NA,NA,NA,NA
147,"BURG4A",126,"Burgmoos",7.674444,47.172222,465,"CHE","Switzerland",4,0,NA,NA,NA,NA
148,"BURG4B",126,"Burgmoos",7.674444,47.172222,465,"CHE","Switzerland",6,0,NA,NA,NA,NA
149,"BURG5-6",126,"Burgmoos",7.674444,47.172222,465,"CHE","Switzerland",16,0,NA,NA,NA,NA
150,"BURG9",126,"Burgmoos",7.674444,47.172222,465,"CHE","Switzerland",29,0,NA,NA,NA,NA
151,"BURG9B",126,"Burgmoos",7.674444,47.172222,465,"CHE","Switzerland",16,0,NA,NA,NA,NA
152,"BUTTER",127,"Butter Mountain",-6.033333,54.166667,458,"GBR","United Kingdom",35,4,2,2,NA,NA
153,"BUYUK",128,"Büyük Gölü",37.383333,39.866667,1298,"TUR","Turkey",4,0,NA,NA,NA,NA
154,"CAIRN2",129,"Cairn",6.556667,45.331389,2315,"FRA","France",37,0,NA,NA,NA,NA
155,"CAM-LG",130,"Cam Loch",-5,58.083333,130,"GBR","United Kingdom",37,7,2,2,NA,NA
156,"CAM-PG",130,"Cam Loch",-5,58.083333,130,"GBR","United Kingdom",28,0,1,2,NA,NA
157,"CARRIV",131,"Carrivmoragh",-5.983333,54.316667,260,"GBR","United Kingdom",59,6,2,2,NA,140
158,"CAUDELAI",132,"La Caudelais",-1.780556,47.261111,1,"FRA","France",158,7,1,2,NA,NA
159,"CERGOWA",134,"Cergowa Gora",21.7,49.533333,495,"POL","Poland",121,12,2,2,NA,NA
160,"CHABADA1",11,"Chabada Lake",129.366667,61.983333,290,"RUS","Russia",62,5,1,2,NA,NA
161,"CHAMB3",135,"Lac de Chambedaze",2.877778,45.450556,1217,"FRA","France",80,0,NA,NA,NA,NA
162,"CHAMB5",135,"Lac de Chambedaze",2.877778,45.450556,1217,"FRA","France",117,0,NA,NA,NA,NA
163,"CHAMBON",136,"Chambon",2.922222,45.574167,901,"FRA","France",14,0,NA,NA,NA,NA
164,"CHASTREI",137,"Bois de la Masse",2.733333,45.5,1140,"FRA","France",62,0,NA,NA,NA,NA
165,"CHAT",138,"Chat Moss",-2.45,53.466667,23,"GBR","United Kingdom",14,0,NA,NA,NA,NA
166,"CHB1",139,"Chranboz",15.361111,49.758333,480,"CZE","Czech Republic",19,0,NA,NA,NA,NA
167,"CHB2",139,"Chranboz",15.361111,49.758333,480,"CZE","Czech Republic",14,0,NA,NA,NA,NA
168,"CHEPK2",140,"Chepkeliai Bog",24.516667,54.016667,133,"LTU","Lithuania",15,2,NA,NA,NA,NA
169,"CHERNOE",141,"Chernoe Lake",106.633333,50.95,500,"RUS","Russia",10,4,NA,NA,NA,NA
170,"CHERNYAR",142,"Cherny Yar",161,56.066667,148,"RUS","Russia",15,2,NA,NA,NA,NA
171,"CHISTIC",143,"Chistic",33,57.335,205,"RUS","Russia",34,4,2,2,NA,NA
172,"CHRIOSD",144,"Loch Cill Chriosd",-5.966667,57.2,20,"GBR","United Kingdom",28,0,NA,NA,NA,NA
173,"CHROISGP",145,"Loch a'Chroisg",-5.327778,57.568333,170,"GBR","United Kingdom",19,3,1,2,300,NA
174,"CLAC2",146,"Lac du Clou",6.933889,45.567222,2375,"FRA","France",22,0,NA,NA,NA,NA
175,"CLAP69",147,"Clapeyret",7.238889,44.147222,2260,"FRA","France",32,4,2,2,NA,NA
176,"CLATTERI",148,"Clatteringshaws Loch",-4.283333,55.066667,210,"GBR","United Kingdom",19,3,1,2,NA,NA
177,"CLOU1",149,"Plan du Clou",6.539167,45.699722,1700,"FRA","France",41,0,NA,NA,NA,NA
178,"COIREBOG",150,"Coire Bog",-4.416667,57.85,259,"GBR","United Kingdom",32,3,1,2,75,NA
179,"COLFIORI",151,"Colfiorito",12.925,43.025,752,"ITA","Italy",74,4,1,2,90,440
180,"COOL69B",152,"Coolteen",-6.6,52.35,50,"IRL","Ireland",39,5,1,2,NA,NA
181,"COOL71A",152,"Coolteen",-6.6,52.35,50,"IRL","Ireland",25,2,1,1,NA,NA
182,"COORAN",153,"Cooran Lane",-4.4,55.116667,274,"GBR","United Kingdom",33,5,2,2,NA,NA
183,"COUVERT",154,"Lac Couvert",6.534722,45.696389,1805,"FRA","France",41,0,NA,NA,NA,NA
184,"CPORTER",155,"Cala'n Porter",4.131389,39.870556,24,"ESP","Spain",88,4,1,2,NA,NA
185,"CRAGGIE",156,"Loch Craggie",-4.843333,58.002778,154,"GBR","United Kingdom",77,0,1,2,NA,NA
186,"CREGGAN",157,"Cregganmore",-9.6,54.25,60,"IRL","Ireland",66,3,1,2,320,NA
187,"CRIVOE",158,"Lake Crivoe",29.133333,55.133333,130,"BLR","Belarus",13,0,NA,NA,NA,NA
188,"CROOB",159,"Slieve Croob",-5.983333,54.333333,462,"GBR","United Kingdom",29,6,2,2,NA,NA
189,"CUETOAV",160,"Cueto de la Avellanosa",-4.364167,43.116667,1320,"ESP","Spain",34,3,1,2,NA,NA
190,"CULHORN",161,"Culhorn Mains",-4.983333,54.891667,17,"GBR","United Kingdom",12,0,NA,NA,NA,NA
191,"CZAJKOW1",162,"Czajkow",21.283333,50.783333,206,"POL","Poland",197,0,1,1,NA,NA
192,"CZAJKOW2",162,"Czajkow",21.283333,50.783333,206,"POL","Poland",102,1,1,1,NA,NA
193,"CZAJKOW4",162,"Czajkow",21.283333,50.783333,206,"POL","Poland",106,0,1,1,NA,NA
194,"DABA8",163,"Daba-Nur",98.794444,48.2,2465,"MNG","Mongolia",25,6,NA,NA,NA,NA
195,"DAGSMOO",164,"Dags Mosse",14.7,58.333333,260,"SWE","Sweden",124,0,2,2,NA,NA
196,"DALLICAN",165,"Dallican Water",-1.1,60.391667,56,"GBR","United Kingdom",80,6,2,2,NA,NA
197,"DEMIRYUR",166,"Demiryurt Gölü",37.383333,39.733333,1662,"TUR","Turkey",24,0,NA,NA,NA,NA
198,"DENDERM",167,"Dendermonde",4.089722,51.043889,2,"BEL","Belgium",19,0,NA,NA,NA,NA
199,"DEROMES",168,"Deromesjön",12.35,57.216667,42,"SWE","Sweden",32,0,NA,NA,NA,NA
200,"DERRYC",169,"Derrycunihy",-9.416667,52.016667,60,"IRL","Ireland",24,4,2,2,NA,NA
201,"DLINNOE",170,"Dlinnoe",33.85,62.316667,66,"RUS","Russia",36,3,2,2,NA,775
202,"DOLG2-3",171,"Dolgoe",28.183333,55.233333,173,"BLR","Belarus",38,1,1,2,NA,NA
203,"DOLG5-7",171,"Dolgoe",28.183333,55.233333,173,"BLR","Belarus",88,0,2,2,NA,NA
204,"DOOD4",172,"Dood-Nur",99.383333,51.333333,1538,"MNG","Mongolia",19,2,NA,NA,NA,NA
205,"DUARTBG",173,"Duartbeg",-5.163056,58.296111,27,"GBR","United Kingdom",29,0,NA,NA,NA,NA
206,"DUNGEON",174,"By Loch Dungeon",-4.316667,55.116667,396,"GBR","United Kingdom",42,0,NA,NA,NA,NA
207,"DUNUM",175,"Dunum (Hilliges Moor)",7.636667,53.59,6,"DEU","Germany",25,2,1,2,NA,NA
208,"DUERREN1",176,"Dürrenecksee-Moor",13.875,47.173611,1694,"AUT","Austria",44,4,2,1,0,780
209,"DVURANSO",177,"Dvur Ansov",16.3875,48.791667,179,"CZE","Czech Republic",58,4,2,2,0,270
210,"ECHETS77",178,"Les Echets",5,45.833333,267,"FRA","France",85,0,NA,NA,NA,NA
211,"ELMALI",179,"Elmali",29.891667,37.672222,1076,"TUR","Turkey",19,0,NA,NA,NA,NA
212,"EMBOU",180,"Embouchac",3.916667,43.566389,1,"FRA","France",188,3,2,2,NA,NA
213,"ENNERIE",181,"Ennerie",-2,47.240278,2,"FRA","France",59,2,1,2,NA,NA
214,"ERAVNOE",182,"Bol'shoe Eravnoe Lake",111.666667,52.583333,947,"RUS","Russia",10,3,NA,NA,NA,NA
215,"ERMISTU",183,"Lake Ermistu",23.966667,58.366667,17,"EST","Estonia",85,5,2,2,NA,NA
216,"ESTACAS",184,"Puerto de las Estaces de Trueba",-3.700556,43.121389,1160,"ESP","Spain",9,3,1,2,NA,NA
217,"ETANG",185,"Le Grand Etang de Suze-La-Rousse",5.233333,44.35,92,"FRA","France",36,1,1,2,NA,NA
218,"EZERIZ",186,"Ezerisch",30,55.85,165,"BLR","Belarus",20,0,1,2,NA,NA
219,"FADA",187,"Loch Fada",-6.2,57.45,135,"GBR","United Kingdom",45,1,1,2,NA,NA
220,"FALSP",188,"The Mire [Fallahogy]",-6.6,54.9,46,"GBR","United Kingdom",78,0,NA,NA,NA,NA
221,"FARSKE",189,"Färshesjön",15.866667,56.166667,14,"SWE","Sweden",128,0,2,2,NA,NA
222,"FISHERS",190,"Fishersgreen",-0.216667,51.9,96,"GBR","United Kingdom",26,0,NA,NA,NA,NA
223,"FJALLS",191,"Fjallsjön 1",12.861111,57.751667,285,"SWE","Sweden",26,3,2,2,NA,NA
224,"FJELLNAS",192,"Fjällnas",12.166667,62.55,780,"SWE","Sweden",67,14,2,2,NA,NA
225,"FLAATEVA",193,"Flaatevatn",6.166667,59.7,570,"NOR","Norway",32,4,2,2,NA,NA
226,"FLARKTOT",194,"Lake Flarken",13.666667,58.583333,109,"SWE","Sweden",114,13,2,2,NA,NA
227,"FLETNOWO",195,"Fletnowo",18.65,53.533333,31,"POL","Poland",94,0,2,2,NA,NA
228,"FLOGELN4",196,"Flögeln",8.763889,53.666667,2,"DEU","Germany",26,0,NA,NA,NA,NA
229,"FLOGELN5",196,"Flögeln",8.763889,53.666667,2,"DEU","Germany",96,4,2,2,NA,470
230,"FLOGELN6",196,"Flögeln",8.763889,53.666667,2,"DEU","Germany",34,1,1,2,NA,NA
231,"FOFMOBS6",197,"Mobeche Forest",-1,48.516667,200,"FRA","France",80,2,1,2,NA,NA
232,"FOMALS80",198,"Malhaire",-1,48.5,170,"FRA","France",114,0,0,2,NA,NA
233,"FOUG1",199,"Grande Brière",-2.25,47.366667,80,"FRA","France",88,0,NA,NA,NA,NA
234,"FOUG2",199,"Grande Brière",-2.25,47.366667,80,"FRA","France",48,7,2,2,NA,NA
235,"FOUG3",199,"Grande Brière",-2.25,47.366667,80,"FRA","France",24,0,NA,NA,NA,NA
236,"FOUGS223",200,"Fougères",-0.833333,48.516667,186,"FRA","France",20,1,1,2,NA,NA
237,"FOUGS707",200,"Fougères",-0.833333,48.516667,186,"FRA","France",45,3,2,2,NA,NA
238,"FOUGS942",200,"Fougères",-0.833333,48.516667,186,"FRA","France",18,1,1,2,NA,NA
239,"FOUGS948",200,"Fougères",-0.833333,48.516667,186,"FRA","France",24,2,1,2,NA,NA
240,"FOURNEAU",201,"Le Fourneau",-0.191667,48.444444,276,"FRA","France",74,10,1,2,NA,126
241,"FRENGSTA",202,"Frengstadsetra",10.133333,62.566667,790,"NOR","Norway",31,5,2,2,NA,NA
242,"FUCHSCH1",203,"Fuchsschwanzmoos",13.905556,47.123611,1688,"AUT","Austria",46,4,2,1,0,440
243,"G89",204,"Giecz",17.363333,52.319444,100,"POL","Poland",71,3,2,2,NA,NA
244,"GALDANA",205,"Cala Galdana",3.965,39.936944,47,"ESP","Spain",102,5,1,2,NA,NA
245,"GALINI",206,"Aghia Galini",24.683333,35.1,0,"GRC","Greece",46,1,1,2,NA,3000
246,"GALTSJ",207,"Galtsjön",15.216667,56.216667,32,"SWE","Sweden",18,4,2,2,NA,NA
247,"GAR1",208,"Mire Garvan",26.95,44.116944,20,"BGR","Bulgaria",32,2,1,2,NA,NA
248,"GARDE862",209,"Bois des Gardes",2.7,45.416667,940,"FRA","France",89,0,NA,NA,NA,NA
249,"GHAB-1",210,"Ghab",36.3,35.683333,166,"SYR","Syrian Arab Republic",74,3,1,2,NA,NA
250,"GHAB-2",210,"Ghab",36.3,35.683333,166,"SYR","Syrian Arab Republic",22,0,NA,NA,NA,NA
251,"GHAB-3",210,"Ghab",36.3,35.683333,166,"SYR","Syrian Arab Republic",34,0,1,2,NA,NA
252,"GHAIL",211,"Druim Bad a'Ghaill",-5.267778,58.052778,130,"GBR","United Kingdom",19,0,NA,NA,NA,NA
253,"GHOBHAIN",212,"Lochan coir a' Ghobhainn",-6.3,57.183333,82,"GBR","United Kingdom",21,4,2,2,NA,NA
254,"GIANNITA",213,"Giannitsa A",22.321111,40.674444,20,"GRC","Greece",25,0,NA,NA,NA,NA
255,"GIANNITB",214,"Giannitsa B",22.316667,40.666667,20,"GRC","Greece",39,2,1,2,NA,NA
256,"GLOW_G2",215,"Glowczyn",20.208333,52.422222,124,"POL","Poland",38,0,NA,NA,NA,NA
257,"GLUBELKA",216,"Lake Glubelka",26.416667,54.95,166,"BLR","Belarus",26,0,1,2,NA,NA
258,"GLUBOKOE",217,"Glubokoe",36.05,61.066667,50,"RUS","Russia",32,1,1,2,NA,560
259,"GOLBASI",218,"Gölbasi Lake",37.55,37.75,873,"TUR","Turkey",24,0,NA,NA,NA,NA
260,"GOLHISH",219,"Gölhisar Gölü",29.6,37.133333,951,"TUR","Turkey",18,0,1,2,NA,NA
261,"GOLKOW",220,"Golkow",20.973611,52.051389,108,"POL","Poland",40,0,NA,NA,NA,NA
262,"GOTNAVOL",221,"Gotnavolok",33.8,62.2,110,"RUS","Russia",74,2,1,2,NA,1035
263,"GRAMIGNE",222,"Venice",12.25,45.5,22,"ITA","Italy",1,1,NA,NA,NA,NA
264,"GRETSKOE",223,"Gretskoe",27.766667,55.633333,134,"BLR","Belarus",23,0,2,2,NA,NA
265,"GUNNUR",224,"Gun-Nur",106.6,50.25,600,"MNG","Mongolia",36,7,NA,NA,NA,NA
266,"HAKULLA5",225,"Håkulls Mosse",12.516667,56.283333,125,"SWE","Sweden",71,20,1,1,NA,NA
267,"HALOS",226,"Halos I",22.833333,39.166667,0,"GRC","Greece",36,8,2,2,NA,1070
268,"HALSEG",227,"Hälsegyl",14.605556,56.545833,142,"SWE","Sweden",13,2,1,2,NA,NA
269,"HALSJON",228,"Halsjön II",15.316667,56.233333,30,"SWE","Sweden",23,7,2,1,NA,NA
270,"HAWKS2",229,"Hawks Tor",-4.6,50.533333,229,"GBR","United Kingdom",82,0,NA,NA,NA,NA
271,"HAWKS-3",229,"Hawks Tor",-4.6,50.533333,229,"GBR","United Kingdom",35,5,2,2,NA,NA
272,"HAWKS-4",229,"Hawks Tor",-4.6,50.533333,229,"GBR","United Kingdom",16,0,NA,NA,NA,NA
273,"HENSP",230,"Lough Henney",-5.9,54.433333,25,"GBR","United Kingdom",81,1,1,2,NA,NA
274,"HI1",231,"Hirschen Moor",8.091667,47.833333,962,"DEU","Germany",16,0,NA,NA,NA,NA
275,"HIRVILAM",232,"Hirvilampi",24.25,60.625,114,"FIN","Finland",133,6,2,2,NA,NA
276,"HITCHINA",233,"Hitchin",-0.266667,51.916667,89,"GBR","United Kingdom",13,0,NA,NA,NA,NA
277,"HITCHINB",233,"Hitchin",-0.266667,51.916667,89,"GBR","United Kingdom",10,0,NA,NA,NA,NA
278,"HOCKHAM",234,"Hockham Mere",0.833333,52.5,33,"GBR","United Kingdom",163,23,1,2,NA,NA
279,"HOCLION",235,"Haut-Clion",-2.025,47.116667,2,"FRA","France",42,1,NA,NA,NA,NA
280,"HOTON",236,"Hoton-Nur",88.3,48.666667,2083,"MNG","Mongolia",37,6,NA,NA,NA,NA
281,"HOUGHALL",237,"Houghall Wood",-1.566667,54.75,41,"GBR","United Kingdom",32,0,NA,NA,NA,NA
282,"HOXNE618",238,"Hoxne",1.2,52.335556,30,"GBR","United Kingdom",146,0,NA,NA,NA,NA
283,"HROZNOTI",239,"Hroznotin",15.355556,49.752778,485,"CZE","Czech Republic",11,0,NA,NA,NA,NA
284,"HTIMONER",240,"Hort Timoner",4.126389,39.875,40,"ESP","Spain",46,0,1,2,NA,NA
285,"HUBSUGUL",241,"Hubsugul",101.166667,50.533333,1645,"MNG","Mongolia",15,2,NA,NA,NA,NA
286,"HULEH",242,"Huleh",35.528333,33.105556,466,"ISR","Israel",28,4,1,2,NA,NA
287,"IFBOGT",243,"Ivano-Frankovskoye",23.766667,49.916667,300,"UKR","Ukraine",36,1,1,1,NA,NA
288,"ILGIS3",244,"Ilgis Lake",23.433333,54.416667,110,"LTU","Lithuania",38,0,NA,NA,NA,NA
289,"ILMEN",245,"Ilmen Lake",31.233333,58.3,18,"RUS","Russia",29,0,1,2,NA,NA
290,"IMATU",246,"Imatu Mire",27.433333,59.133333,45,"EST","Estonia",57,3,2,2,NA,NA
291,"IMBRAMOW",247,"Imbramowice",16.580556,50.890278,175,"POL","Poland",126,0,NA,NA,NA,NA
292,"INURRI01",248,"Inurritza",-2.15,43.3,0,"ESP","Spain",31,0,NA,NA,NA,NA
293,"INURRI02",248,"Inurritza",-2.15,43.3,0,"ESP","Spain",28,0,NA,NA,NA,NA
294,"IOAN249",249,"Ioannina",20.916667,39.65,470,"GRC","Greece",217,0,1,2,NA,NA
295,"IOAN-II",250,"Ioannina II",20.839722,39.691944,470,"GRC","Greece",29,2,1,1,NA,460
296,"IOANNINA",251,"Ioannina I",20.730556,39.7625,470,"GRC","Greece",107,3,1,2,NA,NA
297,"ISOKARR",252,"Isokärret",22.133333,60.216667,16,"FIN","Finland",38,4,1,2,NA,NA
298,"IVAN4",23,"Ivanovskoye Peat Bog",38.766667,56.816667,141,"RUS","Russia",13,3,1,2,NA,NA
299,"IVAN5",23,"Ivanovskoye Peat Bog",38.766667,56.816667,141,"RUS","Russia",20,5,2,2,NA,NA
300,"JAN",253,"Liptovsky Jan",19.677778,49.041667,660,"SVK","Slovakia",100,6,2,2,NA,NA
301,"JANCONT",253,"Liptovsky Jan",19.677778,49.041667,660,"SVK","Slovakia",47,1,2,2,NA,NA
302,"JASIEL81",254,"Jasiel",21.886944,49.372778,680,"POL","Poland",47,6,2,2,NA,NA
303,"JC-13-A",255,"Spoli",14.9,48.966667,440,"CZE","Czech Republic",10,0,NA,NA,NA,NA
304,"JC-2-A",256,"Velanská cesta",14.983333,49.25,505,"CZE","Czech Republic",45,0,NA,NA,NA,NA
305,"JC-3-A",257,"Cervene blato",14.933333,48.85,470,"CZE","Czech Republic",58,0,1,2,0,400
306,"JC-3-AA",257,"Cervene blato",14.933333,48.85,470,"CZE","Czech Republic",8,0,NA,NA,NA,NA
307,"JC-3-B",257,"Cervene blato",14.933333,48.85,470,"CZE","Czech Republic",15,0,NA,NA,NA,NA
308,"JC-5-C",258,"Borkovicka blata",14.9,49.216667,415,"CZE","Czech Republic",8,0,NA,NA,NA,NA
309,"JC-5-D",258,"Borkovicka blata",14.9,49.216667,415,"CZE","Czech Republic",26,2,1,2,0,175
310,"JC-6-A",259,"Branna",14.933333,48.95,450,"CZE","Czech Republic",76,0,1,1,NA,NA
311,"JC-6-B",260,"Barbora",14.933333,48.941667,460,"CZE","Czech Republic",103,0,1,1,0,840
312,"JC-7-B",261,"Svarcenberk",14.705,49.145833,412,"CZE","Czech Republic",51,0,NA,NA,NA,NA
313,"JESTREB",262,"Jestrebske blato",14.591667,50.602778,259,"CZE","Czech Republic",24,0,NA,NA,NA,NA
314,"JEU1",263,"Plan du Jeu",6.532222,45.607222,2010,"FRA","France",27,0,NA,NA,NA,NA
315,"KAAKOTIN",264,"Kaarkotinlampi",25.866667,61.416667,104,"FIN","Finland",37,6,2,2,NA,NA
316,"KAARTLAM",265,"Kaartlamminsuo",24.216667,60.733333,115,"FIN","Finland",54,4,2,2,NA,NA
317,"KALVEN",266,"Kalven",14.555556,56.533333,163,"SWE","Sweden",16,2,1,2,NA,NA
318,"KANGERJ",267,"Kangerjoki",29,66.116667,288,"FIN","Finland",29,7,2,2,NA,NA
319,"KARAMIK",268,"Kararmik Batakligi",30.8,38.425,1000,"TUR","Turkey",50,4,1,2,NA,NA
320,"KARASEOZ",269,"Karasieozerskoe",60.75,56.766667,230,"RUS","Russia",31,3,2,2,NA,NA
321,"KARU",270,"Lake Karujarv",22.2,58.383333,32,"EST","Estonia",74,10,2,2,NA,NA
322,"KARUKULA",271,"Karukula",24.983333,58.1,64,"EST","Estonia",39,0,NA,NA,NA,NA
323,"KASSJON",272,"Kassjön",20.016667,63.916667,84,"SWE","Sweden",78,0,1,2,NA,NA
324,"KASTORIA",273,"Kastoria",21.322222,40.551944,650,"GRC","Greece",18,2,1,2,NA,NA
325,"KAZGOLU",274,"Kaz Gölü",36.15,40.283333,540,"TUR","Turkey",50,0,NA,NA,NA,NA
326,"KCHOD",275,"Khodzal",41.911111,42.954167,2030,"GEO","Georgia",31,1,1,2,NA,NA
327,"KEPSKOE",276,"Kepskoe",32.166667,65.083333,124,"RUS","Russia",21,2,1,2,NA,NA
328,"KHIM-1A",277,"Khimaditis Ia",21.589167,40.6225,560,"GRC","Greece",6,0,NA,NA,NA,NA
329,"KHIMADIT",278,"Khimaditis Ib",21.583333,40.616667,560,"GRC","Greece",49,4,1,2,NA,NA
330,"KHIMAIII",279,"Khimaditis III",21.586111,40.6125,560,"GRC","Greece",20,2,1,2,NA,NA
331,"KHIMIV",280,"Khimaditis IV",21.619722,40.641667,560,"GRC","Greece",47,0,NA,NA,NA,NA
332,"KINGS",281,"King's Pool",-2.108333,52.808333,70,"GBR","United Kingdom",176,14,2,2,NA,1545
333,"KIRKKOSA",282,"Kirkkosaari",24.5,60.866667,84,"FIN","Finland",53,4,2,2,NA,NA
334,"KITTILA",283,"Kittilä",24.683333,65.025,8,"FIN","Finland",17,1,1,2,NA,NA
335,"KLET_ST",284,"Kletnia Stara",21.679167,51.635,135,"POL","Poland",24,1,NA,NA,NA,NA
336,"KLUK74",285,"Kluki",17.284722,54.706944,1,"POL","Poland",82,20,2,2,NA,NA
337,"KOLDYCHE",286,"Koldychevo",26.066667,53.266667,185,"BLR","Belarus",36,0,1,2,NA,NA
338,"KOLMILAT",287,"Lake Kolmilaträsk",20.15,60.283333,12,"FIN","Finland",57,5,2,2,NA,NA
339,"KOMOR1",288,"Komoranské jezero",13.5,50.5,231,"CZE","Czech Republic",18,0,NA,NA,NA,NA
340,"KOMOR2",288,"Komoranské jezero",13.5,50.5,231,"CZE","Czech Republic",13,0,NA,NA,NA,NA
341,"KOMOR3",288,"Komoranské jezero",13.5,50.5,231,"CZE","Czech Republic",19,0,NA,NA,NA,NA
342,"KOPPALO",289,"Koppalosuo",33.65,62.283333,117,"RUS","Russia",44,0,1,2,NA,150
343,"KOYCEGIZ",290,"Köycegiz Gölü",28.641667,36.875,20,"TUR","Turkey",47,2,1,2,NA,NA
344,"KRAGJR",291,"Krageholmssjön",13.733333,55.5,43,"SWE","Sweden",110,0,2,2,NA,NA
345,"KROGLO1",292,"Krugloye",37.583333,66.366667,140,"RUS","Russia",17,6,2,2,NA,NA
346,"KROKSJON",293,"Kroksjön",15.016667,56.266667,46,"SWE","Sweden",16,5,2,1,NA,NA
347,"KRONY",294,"Krontjärnen",20.95,66.233333,58,"SWE","Sweden",65,0,NA,NA,NA,NA
348,"KUBEN",295,"Kubenskoe Lake",39.5,59.7,110,"RUS","Russia",44,0,2,1,NA,NA
349,"KUCUK",296,"Küçük Akgöl",30.433333,40.866667,49,"TUR","Turkey",26,0,NA,NA,NA,NA
350,"KUIVAJAR",297,"Kuivajarvi",23.833333,60.783333,97,"FIN","Finland",112,4,1,2,NA,NA
351,"KUNYOK",298,"Kunyok",33.666667,67.833333,220,"RUS","Russia",12,11,2,2,NA,NA
352,"KUPENA",299,"Kupena",24.333333,41.983333,1356,"BGR","Bulgaria",31,6,1,2,NA,NA
353,"KUPENA1",299,"Kupena",24.333333,41.983333,1356,"BGR","Bulgaria",35,3,1,2,NA,NA
354,"L_GOLLER",300,"Lough Goller",-9.416667,53.033333,150,"IRL","Ireland",29,0,NA,NA,NA,NA
355,"LACKAN1",301,"Lackan Bog",-6.083333,54.266667,75,"GBR","United Kingdom",19,16,2,2,NA,NA
356,"LACKAN2",301,"Lackan Bog",-6.083333,54.266667,75,"GBR","United Kingdom",99,10,2,2,NA,250
357,"LACOTE",302,"La Cote-Vercors",5.55,45.1,1116,"FRA","France",128,0,NA,NA,NA,NA
358,"LAD1097",303,"Ladoga Lake",31.335278,61.556944,5,"RUS","Russia",19,1,2,2,NA,NA
359,"LAGODEH",304,"Lagodekhi",46.373611,41.914444,2750,"GEO","Georgia",9,0,1,2,NA,NA
360,"LAGORE",305,"Dunshauglin",-6.516667,53.516667,100,"IRL","Ireland",29,0,NA,NA,NA,NA
361,"LAGUNA",306,"Laguna Grande",-4.316667,37.108333,800,"ESP","Spain",23,0,NA,NA,NA,NA
362,"LAIT3",307,"Lac du Lait",6.816667,45.315278,2190,"FRA","France",34,0,NA,NA,NA,NA
363,"LALAX",308,"Lalaxkärret",21.866667,60.15,20,"FIN","Finland",28,3,2,2,NA,NA
364,"LANDR",309,"Landruchie Mire",39,61,120,"RUS","Russia",29,1,1,1,NA,NA
365,"LANDSH",310,"Landshaftnoe",30.533333,64.566667,207,"RUS","Russia",27,2,1,2,NA,NA
366,"LAROYA",311,"Laguna de la Roya",-6.766667,42.216667,1608,"ESP","Spain",72,6,1,2,NA,NA
367,"LAUT375",312,"Etang du Lautrey",5.863889,46.587222,788,"FRA","France",166,1,1,2,NA,NA
368,"LAUZE775",313,"Col des Lauzes",6.536667,46.043833,1832,"FRA","France",99,8,1,2,NA,NA
369,"LAVAU",314,"Lavau",-1.965278,47.307778,1,"FRA","France",115,5,1,2,NA,NA
370,"LAVIE",315,"La Vie",-0.258333,48.548333,238,"FRA","France",49,6,2,2,22.5,100
371,"LBA",316,"Lade Bank",0.057778,53.0725,2,"GBR","United Kingdom",19,5,2,2,NA,NA
372,"LDPEAT",174,"By Loch Dungeon",-4.316667,55.116667,396,"GBR","United Kingdom",42,2,1,2,NA,140
373,"LECLOITR",317,"Le Cloitre Saint Thégonnec",-3.5,48.5,198,"FRA","France",22,0,NA,NA,NA,NA
374,"LEDN86",318,"Lake Lednica",17.390278,52.556944,109,"POL","Poland",84,9,2,2,NA,NA
375,"LEDN86V",318,"Lake Lednica",17.390278,52.556944,109,"POL","Poland",103,0,2,2,NA,NA
376,"LEIK1",319,"Leikishke Bog",23.533333,54.533333,120,"LTU","Lithuania",35,0,1,1,NA,NA
377,"LEIK2",319,"Leikishke Bog",23.533333,54.533333,120,"LTU","Lithuania",42,0,2,2,NA,720
378,"LEMPS81",320,"Le Grand Lemps",5.416667,45.473333,680,"FRA","France",98,5,NA,NA,NA,NA
379,"LEMPS83",320,"Le Grand Lemps",5.416667,45.473333,680,"FRA","France",160,6,1,2,NA,NA
380,"LEMPS85",320,"Le Grand Lemps",5.416667,45.473333,680,"FRA","France",113,5,NA,NA,NA,NA
381,"LEMPS86",320,"Le Grand Lemps",5.416667,45.473333,680,"FRA","France",75,3,2,2,NA,NA
382,"LGLOPPSJ",321,"Lilla Gloppsjön",14.627778,59.804444,198,"SWE","Sweden",86,11,2,2,NA,NA
383,"LIGNIN1",322,"Lignin Lake",6.708611,44.104167,2273,"FRA","France",35,4,NA,NA,NA,NA
384,"LIGNIN2",322,"Lignin Lake",6.708611,44.104167,2273,"FRA","France",13,1,NA,NA,NA,NA
385,"LIIVJARV",323,"Liivjarve Bog",27.583333,59.216667,46,"EST","Estonia",64,7,2,2,NA,NA
386,"LILLA-SJ",324,"Lilla Sjö",13.916667,56.283333,58,"SWE","Sweden",12,1,NA,NA,NA,NA
387,"LILLSJON",325,"Lillsjön",12.533333,57.083333,80,"SWE","Sweden",16,3,2,2,NA,NA
388,"LIMANT",326,"The Bog Liman",37.666667,49.733333,150,"UKR","Ukraine",15,0,2,2,NA,NA
389,"LJUNGSJ",327,"Ljungsjön",13.327222,57.734167,300,"SWE","Sweden",14,3,1,2,NA,NA
390,"LLANILID",328,"Llanilid",-3.45,51.516667,60,"GBR","United Kingdom",89,24,2,2,NA,NA
391,"LLDR1",329,"Loch Lomond Ross Dubh",-4.583333,56.086389,8,"GBR","United Kingdom",30,13,2,2,NA,NA
392,"LLOCHANS",330,"Little Lochans",-4.983333,54.866667,25,"GBR","United Kingdom",39,0,NA,NA,NA,NA
393,"LLONG1",331,"Lac Long Inférieur",7.45,44.057778,2114,"FRA","France",71,12,2,2,NA,NA
394,"LOBHOLO",332,"Lobsigensee",7.298056,47.030556,514,"CHE","Switzerland",176,32,2,2,85,900
395,"LOCHINSK",333,"Lochinskoe",28.6,53.55,164,"BLR","Belarus",23,0,1,2,NA,900
396,"LOCMAR",334,"Locmariaquer",-2.932222,47.554444,2,"FRA","France",34,5,1,2,NA,NA
397,"LOGNE",335,"Logne",-1.501111,47.328333,4,"FRA","France",74,5,1,2,NA,NA
398,"LOM1",336,"Lomzyca",22.044444,53.166667,108,"POL","Poland",55,0,NA,NA,NA,NA
399,"LOM2-78",337,"Lomzyca 2",22.05,53.158333,108,"POL","Poland",100,0,1,1,NA,NA
400,"LONSP",338,"Long Lough",-5.866667,54.416667,25,"GBR","United Kingdom",95,5,1,2,NA,NA
401,"LOONS",339,"The Loons",-3.158056,54.607222,13,"GBR","United Kingdom",14,0,NA,NA,NA,NA
402,"LORAS84",340,"Loras",5.243333,45.666389,416,"FRA","France",136,5,1,2,NA,NA
403,"LOUCKY",341,"Loucky",15.502778,49.325,560,"CZE","Czech Republic",42,1,1,2,0,210
404,"LUGAN",342,"Luganskoe",40.691667,43.7325,2428,"RUS","Russia",28,3,2,2,NA,NA
405,"LUNDIN",343,"Lundin Tower",-2.965833,56.215,28,"GBR","United Kingdom",42,0,1,2,NA,NA
406,"LUTIN",344,"Lutinière",-0.862222,46.444444,4,"FRA","France",56,7,1,2,NA,NA
407,"LUXBEAUF",345,"Beaufort Birkenbach",6.125833,49.847222,217,"LUX","Luxembourg",53,1,1,2,NA,NA
408,"LUXBERDO",346,"Berdorf Aesbaach",6.371111,49.819444,326,"LUX","Luxembourg",12,1,1,1,NA,NA
409,"LUXBREID",347,"Breidfeld",6.063056,50.122778,329,"LUX","Luxembourg",23,3,1,2,NA,NA
410,"LUXECHT1",348,"Echternach",6.231389,49.799444,385,"LUX","Luxembourg",39,0,NA,NA,NA,NA
411,"LUXECHT2",348,"Echternach",6.231389,49.799444,385,"LUX","Luxembourg",55,0,NA,NA,NA,NA
412,"LUXECHT3",348,"Echternach",6.231389,49.799444,385,"LUX","Luxembourg",6,0,NA,NA,NA,NA
413,"LUXPETTA",349,"Pettange sur Alzette",6.108333,49.780556,260,"LUX","Luxembourg",3,2,NA,NA,NA,NA
414,"LUXRE641",350,"Reisdorf",6.301667,49.851667,369,"LUX","Luxembourg",21,0,NA,NA,NA,NA
415,"LUXRE642",350,"Reisdorf",6.301667,49.851667,369,"LUX","Luxembourg",14,0,NA,NA,NA,NA
416,"LUXRE643",350,"Reisdorf",6.301667,49.851667,369,"LUX","Luxembourg",18,0,NA,NA,NA,NA
417,"LUXRE644",350,"Reisdorf",6.301667,49.851667,369,"LUX","Luxembourg",20,0,NA,NA,NA,NA
418,"LUXRE655",350,"Reisdorf",6.301667,49.851667,369,"LUX","Luxembourg",10,0,NA,NA,NA,NA
419,"LUXRE656",350,"Reisdorf",6.301667,49.851667,369,"LUX","Luxembourg",23,0,NA,NA,NA,NA
420,"MAANSEL",351,"Maanselänsuo",29.6,65.616667,248,"FIN","Finland",29,4,2,2,NA,NA
421,"MAARDUI",352,"Lake Maardu",24.995278,59.444722,32,"EST","Estonia",60,3,2,2,NA,NA
422,"MAARDUII",352,"Lake Maardu",24.995278,59.444722,32,"EST","Estonia",27,1,1,1,NA,NA
423,"MACHECOU",353,"Machecoul",-1.866667,46.991667,2,"FRA","France",29,1,NA,NA,NA,NA
424,"MADICIV",354,"Madic",2.45,45.35,465,"FRA","France",18,0,NA,NA,NA,NA
425,"MAKSIMKI",355,"Maksimkin Yar",88.166667,58.333333,150,"RUS","Russia",48,4,1,2,NA,NA
426,"MALCIN",356,"Malcin",15.416667,49.666667,520,"CZE","Czech Republic",23,0,NA,NA,NA,NA
427,"MALESH",357,"Maleshevska Mountains Peat Bog",23.033333,41.7,1720,"BGR","Bulgaria",41,4,1,2,NA,NA
428,"MALOE",358,"Maloe",28.2,54.183333,164,"BLR","Belarus",29,0,1,2,NA,480
429,"MARCH",359,"Hobbs Lot March",0.071389,52.601667,1,"GBR","United Kingdom",62,6,2,2,NA,NA
430,"MAREE",360,"Loch Maree",-5.483333,57.083333,60,"GBR","United Kingdom",57,6,2,2,85,NA
431,"MAREUG2",361,"Mareuge",2.899722,45.621944,1076,"FRA","France",51,0,NA,NA,NA,NA
432,"MARKSTBB",362,"Marks Tey",0.783333,51.866667,326,"GBR","United Kingdom",25,0,NA,NA,NA,NA
433,"MARKSTGG",362,"Marks Tey",0.783333,51.866667,326,"GBR","United Kingdom",90,0,NA,NA,NA,NA
434,"MARTIGAN",363,"Lago di Martignano",12.333333,42.116667,204,"ITA","Italy",68,8,2,2,0,667
435,"MASEHJ",364,"Masehjavri",20.983333,69.05,685,"FIN","Finland",34,6,1,1,NA,NA
436,"MAT-1",365,"Vitosha Mountains Peat Bog",23.291696,42.547182,2160,"BGR","Bulgaria",16,2,1,2,NA,NA
437,"MAYRA",366,"Mayralampi",26.233333,62.333333,118,"FIN","Finland",89,6,1,1,NA,NA
438,"MEALT",367,"Loch Mealt",-6.133333,57.6,51,"GBR","United Kingdom",41,0,NA,NA,NA,NA
439,"MEDVE",368,"Lake Medvezhino",28.783333,55.266667,130,"BLR","Belarus",31,0,NA,NA,NA,NA
440,"MELEN",369,"Melen Gölü",31.05,40.766667,116,"TUR","Turkey",76,0,NA,NA,NA,NA
441,"MEZHGOR",370,"Mezhgornoe",30.7,66.366667,190,"RUS","Russia",25,1,1,2,NA,NA
442,"MICHUR",371,"Michurinskoe Lake",29.983333,60.516667,94,"RUS","Russia",14,0,NA,NA,NA,NA
443,"MINITUM",372,"Minitumba",33.016667,63.5,150,"RUS","Russia",45,0,1,1,NA,NA
444,"MIRABAD",373,"Lake Mirabad",47.716667,33.083333,736,"IRN","Iran, Islamic Republic of",39,0,NA,NA,NA,NA
445,"MJALLSJ",374,"Mjällsjön",12.566667,57.1,72,"SWE","Sweden",16,0,NA,NA,NA,NA
446,"MLOMMES",375,"M. Lommesjön",12.15,58.583333,158,"SWE","Sweden",20,0,NA,NA,NA,NA
447,"MLOUKY",376,"Mokre louky (South)",14.833333,48.833333,425,"CZE","Czech Republic",82,5,2,2,0,370
448,"MLOUKY-B",377,"Mokre louky (North)",14.833333,49.166667,425,"CZE","Czech Republic",12,0,NA,NA,NA,NA
449,"MOERBEKE",378,"Moerbeke",4.948056,51.171389,4,"BEL","Belgium",28,2,2,2,NA,NA
450,"MOERZEKE",379,"Moerzeke",4.176389,51.048333,1,"BEL","Belgium",11,2,1,2,NA,NA
451,"MONALSUP",380,"Le Monal",6.928611,45.556944,1975,"FRA","France",43,0,NA,NA,NA,NA
452,"MONT2",381,"Le Mont",6.548889,45.551389,1995,"FRA","France",57,0,NA,NA,NA,NA
453,"MONT82",382,"Lago Grande di Monticchio",15.6,40.944444,1326,"ITA","Italy",146,8,1,2,0,750
454,"MONTLONG",382,"Lago Grande di Monticchio",15.6,40.944444,1326,"ITA","Italy",50,0,NA,NA,NA,NA
455,"MONTWAW1",382,"Lago Grande di Monticchio",15.6,40.944444,1326,"ITA","Italy",57,0,NA,NA,NA,NA
456,"MORRONE",383,"Morrone Birkwoods",-3.4325,56.9975,425,"GBR","United Kingdom",34,10,1,2,NA,150
457,"MOSFELL",384,"Mosfell",-20.609722,64.126111,80,"ISL","Iceland",33,5,1,2,NA,100
458,"MOSSCREE",385,"Moss of Cree",-4.45,54.923333,10,"GBR","United Kingdom",26,0,NA,NA,NA,NA
459,"MOSSEN",386,"Mossen",21.6,60.116667,17,"FIN","Finland",56,3,2,2,NA,NA
460,"MOUSSOUS",387,"Moussous",3.991111,44.636111,1300,"FRA","France",43,0,NA,NA,NA,NA
461,"MOUTON2",388,"Lac Mouton",7.444722,44.057778,2175,"FRA","France",31,4,2,2,NA,NA
462,"MUKKAV",389,"Mukkavaara",21,68.916667,535,"FIN","Finland",56,9,2,2,NA,NA
463,"MULLSJ",390,"Mullsjön",14.233333,58.283333,133,"SWE","Sweden",20,3,2,2,NA,NA
464,"MUSTUSUO",391,"Mustusuo",33.5,61.805556,101,"RUS","Russia",20,2,1,2,NA,NA
465,"MUTORO1",392,"Mutorog Peat Bog",23.616667,43.516667,1700,"BGR","Bulgaria",12,1,1,2,NA,NA
466,"NAKLO",393,"Naklo",17.6,53.15,61,"POL","Poland",106,0,1,1,NA,NA
467,"NAROCH",394,"Naroch",26.75,54.816667,165,"BLR","Belarus",28,0,1,2,NA,420
468,"NASLAT",395,"Slieve Naslat",-5.983333,54.35,300,"GBR","United Kingdom",67,8,2,2,NA,NA
469,"NAVA1",396,"Navarrés",-0.683333,39.1,225,"ESP","Spain",15,5,1,2,NA,NA
470,"NAVA2",396,"Navarrés",-0.683333,39.1,225,"ESP","Spain",30,1,1,2,NA,NA
471,"NAVARRE3",396,"Navarrés",-0.683333,39.1,225,"ESP","Spain",191,14,1,2,NA,NA
472,"NCURLEY",397,"Nick of Curleywee",-4.4275,55.067778,500,"GBR","United Kingdom",27,0,NA,NA,NA,NA
473,"NDRAKET",398,"Nedre Draketjärn",12.167778,58.591389,137,"SWE","Sweden",11,0,NA,NA,NA,NA
474,"NEMINO",399,"Nemino",34.583333,62.75,45,"RUS","Russia",24,3,2,2,NA,200
475,"NENAZV",400,"Nenazvannoe",33.483333,61.805556,100,"RUS","Russia",19,1,1,2,NA,NA
476,"NERO2",401,"Lake Nero",39.451389,57.183333,95,"RUS","Russia",180,0,NA,NA,NA,NA
477,"NERO274",401,"Lake Nero",39.451389,57.183333,95,"RUS","Russia",40,0,1,2,NA,2000
478,"NERO276",401,"Lake Nero",39.451389,57.183333,95,"RUS","Russia",39,1,1,1,NA,NA
479,"NERO2P",401,"Lake Nero",39.451389,57.183333,95,"RUS","Russia",57,3,2,2,NA,NA
480,"NERO489",401,"Lake Nero",39.451389,57.183333,95,"RUS","Russia",29,1,1,1,NA,NA
481,"NIE1BIS",402,"Niechorze",15.05,54,5,"POL","Poland",52,9,1,2,NA,NA
482,"NIGULA",403,"Nigula",24.666667,58,55,"EST","Estonia",60,11,1,1,NA,NA
483,"NMADBER",404,"Nedre Madbergagölen",12.166667,58.6,138,"SWE","Sweden",13,9,2,2,NA,NA
484,"NOEL07",405,"Lacs Noels",2.858889,44.973056,1100,"FRA","France",125,0,NA,NA,NA,NA
485,"NOIROT",406,"Lac Noir",2.627222,45.453611,850,"FRA","France",232,0,NA,NA,NA,NA
486,"NOSUO",407,"Nosuo",30.833333,64.566667,163,"RUS","Russia",19,1,1,2,NA,NA
487,"NOVJATO",408,"Lake Novjato",27.083333,55.616667,150,"BLR","Belarus",58,0,NA,NA,NA,NA
488,"NOVOLSK",409,"Novolsky",26.656389,53.192222,168,"BLR","Belarus",71,4,2,2,NA,NA
489,"NOWINY",410,"Nowiny",19.334722,53.9375,45,"POL","Poland",30,0,NA,NA,NA,NA
490,"NULSAVEI",411,"Nulsaveito",70.166667,67.533333,57,"RUS","Russia",30,5,1,2,NA,NA
491,"NUOCHAGA",412,"Lake Nuochaga",129.55,61.3,260,"RUS","Russia",45,4,1,2,NA,NA
492,"ODEN_BP3",413,"Odensjön",13.283333,56,60,"SWE","Sweden",24,0,NA,NA,NA,NA
493,"OLBRAM",414,"Olbramovice",16.4,48.991667,205,"CZE","Czech Republic",26,3,2,2,0,295
494,"OLTUSH",415,"Oltush Lake",23.956667,51.696667,158,"BLR","Belarus",42,8,2,2,NA,NA
495,"ONEGO6",416,"Onego Lake",34.916667,61.716667,33,"RUS","Russia",52,0,1,2,NA,450
496,"ONEGO8",416,"Onego Lake",34.916667,61.716667,33,"RUS","Russia",44,0,1,2,NA,330
497,"OSPITALE",417,"Ospitale",10.78,44.155556,1225,"ITA","Italy",51,5,2,2,120,777
498,"OSTROW",418,"Ostrow",19.554167,51.472222,223,"POL","Poland",20,0,NA,NA,NA,NA
499,"OSVEA",419,"Osvea",28.083333,56.05,132,"BLR","Belarus",58,1,1,2,NA,NA
500,"OVAGOLU",420,"Ova Gölü",29.3,36.266667,20,"TUR","Turkey",34,2,1,2,NA,NA
501,"OVDRAKE",421,"Övre Draketjärn",12.183333,58.6,143,"SWE","Sweden",18,0,NA,NA,NA,NA
502,"OVRAZHNO",422,"Ovrazhnoe",85.166667,56.25,110,"RUS","Russia",25,1,1,2,NA,NA
503,"PADUGU",423,"Pas du Gu",-2.15,47.238333,3,"FRA","France",39,3,1,2,NA,NA
504,"PADULE",424,"Lago Padule",10.214722,44.298611,1187,"ITA","Italy",69,7,2,2,311,1245
505,"PAIDRE",425,"Påidre",25.633333,58.266667,506,"EST","Estonia",91,3,2,2,NA,NA
506,"PAILL3",426,"Puy de Pailleret",2.816667,45.516667,1590,"FRA","France",71,0,1,2,NA,NA
507,"PAILLE",426,"Puy de Pailleret",2.816667,45.516667,1590,"FRA","France",4,0,NA,NA,NA,NA
508,"PAJUR1",427,"Pajuris Fen",21.085833,56.013056,2,"LTU","Lithuania",18,6,NA,NA,NA,NA
509,"PALAS_A",428,"Palasiny",15.483333,49.688889,520,"CZE","Czech Republic",43,0,NA,NA,NA,NA
510,"PALASINY",428,"Palasiny",15.483333,49.688889,520,"CZE","Czech Republic",21,1,1,2,NA,NA
511,"PAMERK",429,"Pamerkiai Outcrop",24.736111,54.313889,1225,"LTU","Lithuania",41,1,1,1,NA,NA
512,"PECHT",430,"Pecheniya",23.933333,49.666667,225,"UKR","Ukraine",9,0,1,1,NA,NA
513,"PELL79C2",431,"Pelléautier",6.183333,44.522222,975,"FRA","France",38,2,1,2,NA,NA
514,"PERLE",432,"Lac de Perle",7.6,44.141667,2080,"ITA","Italy",26,0,NA,NA,NA,NA
515,"PESCH1",433,"Peschanoe",25.483333,51.983333,139,"BLR","Belarus",86,0,2,1,NA,NA
516,"PESCHAN",434,"Peschanoe Bog",60.316667,56.9,310,"RUS","Russia",62,0,NA,NA,NA,NA
517,"PESCHAN2",433,"Peschanoe",25.483333,51.983333,139,"BLR","Belarus",49,0,2,1,NA,NA
518,"PESKI",435,"Peski",24.7,53.366667,115,"BLR","Belarus",29,0,NA,NA,NA,NA
519,"PETRILOV",436,"Mire Petrolivo",31.983333,56,175,"RUS","Russia",42,1,1,2,NA,NA
520,"PETROP",437,"Petropavlovka",82.5,58.333333,100,"RUS","Russia",66,5,1,2,NA,NA
521,"PEYRE04",438,"Peyrelevade",2.383333,45.708333,780,"FRA","France",53,0,1,2,NA,NA
522,"PICH84",439,"Picherande",2.8,45.533333,1208,"FRA","France",22,0,NA,NA,NA,NA
523,"PICKLET",440,"Pickletillem",-2.9,56.4,21,"GBR","United Kingdom",29,11,2,2,NA,NA
524,"PLACECOM",441,"Place du Commerce",-1.556111,47.213889,7,"FRA","France",40,7,1,2,NA,NA
525,"PLAN",442,"Plan du Lac",6.816667,45.315278,2360,"FRA","France",49,0,NA,NA,NA,NA
526,"PODHORAN",443,"Podhorany",20.75,49,598,"SVK","Slovakia",22,0,NA,NA,NA,NA
527,"POPOVO",444,"Popovo Ezero",23.666667,41.716667,2185,"BGR","Bulgaria",23,3,1,2,NA,NA
528,"POPOVT",445,"Popovschina",34,50.416667,135,"UKR","Ukraine",15,0,1,2,NA,NA
529,"POULROE",446,"Poulroe",-8.966667,53.066667,39,"IRL","Ireland",26,0,NA,NA,NA,NA
530,"POV2",447,"Lake Varna",27.833333,43.2,0,"BGR","Bulgaria",80,2,1,2,NA,NA
531,"PRUGNO2",448,"Moulin de Prugnolas",1.645833,45.849722,720,"FRA","France",39,3,NA,NA,NA,NA
532,"PTICHJE",449,"Ptichje",30.566667,66.35,120,"RUS","Russia",29,2,1,2,NA,NA
533,"PUNOZER",450,"Punozerka",33.577778,62.816667,157,"RUS","Russia",48,0,1,2,NA,830
534,"PUNSO",451,"Punso",27.25,57.683333,183,"EST","Estonia",38,12,2,2,NA,NA
535,"PUOLANKA",452,"Vasikkasuo",27.866667,64.666667,270,"FIN","Finland",53,0,1,2,NA,NA
536,"PUREK_N",453,"Puscizna Rekowianska",19.816667,49.483333,656,"POL","Poland",76,8,2,2,NA,NA
537,"QUARTZ",454,"Quartzevoe",41.166667,43.666667,2726,"RUS","Russia",11,1,1,2,NA,30
538,"QUINTA01",455,"Quintanar de la Sierra",-3.016667,42.033333,1470,"ESP","Spain",24,0,NA,NA,NA,NA
539,"QUINTA02",455,"Quintanar de la Sierra",-3.016667,42.033333,1470,"ESP","Spain",82,20,2,2,NA,NA
540,"RAIGASTV",456,"Raigastvere Lake",26.666667,58.6,52,"EST","Estonia",116,11,1,2,NA,NA
541,"RANTOT",457,"Ran Viken",14.3,56.283333,813,"SWE","Sweden",141,0,2,2,NA,NA
542,"RASNA",458,"Rasna",15.370833,49.230556,680,"CZE","Czech Republic",93,1,2,2,0,430
543,"RATTUV",459,"Rattuvarri",20.316667,69.35,100,"NOR","Norway",32,5,2,2,NA,NA
544,"RATZ81",460,"Saint Julien de Ratz",5.655278,45.348333,673,"FRA","France",156,4,1,2,NA,NA
545,"RATZ83",460,"Saint Julien de Ratz",5.655278,45.348333,673,"FRA","France",87,8,NA,NA,NA,NA
546,"RATZ85",461,"Grand Ratz le Pellet",5.608333,45.425,682,"FRA","France",80,5,NA,NA,NA,NA
547,"REDMERE",462,"Redmere",0.438056,52.439722,0,"GBR","United Kingdom",48,4,1,2,NA,NA
548,"REGET",463,"Regetovka",21.279167,49.425,515,"SVK","Slovakia",67,5,2,2,NA,NA
549,"REZABIN",464,"Rezabinec",14.116667,49.25,369,"CZE","Czech Republic",34,9,2,2,0,165
550,"R-H-F",465,"Roberthill Farm",-3.416667,55.05,42,"GBR","United Kingdom",4,0,NA,NA,NA,NA
551,"RIBNOE",466,"Ribnoe",41.206944,43.708333,2115,"RUS","Russia",28,2,1,2,NA,NA
552,"RISHI",467,"Lake Richi",26.716667,55.683333,146,"BLR","Belarus",31,0,NA,NA,NA,NA
553,"RL240",468,"Rotsee",8.325833,47.075833,428,"CHE","Switzerland",71,3,2,2,NA,NA
554,"RL250",468,"Rotsee",8.325833,47.075833,428,"CHE","Switzerland",128,10,2,2,0,780
555,"ROAG",469,"Little Loch Roag",-6.883333,58.133333,27,"GBR","United Kingdom",40,6,2,2,NA,NA
556,"ROQUETAS",470,"Roquetas de Mar",-2.588889,36.794444,0,"ESP","Spain",32,3,1,2,NA,NA
557,"ROSLE_N",471,"Rosle Nowe",18.916667,52.133333,110,"POL","Poland",24,3,1,1,NA,NA
558,"ROZ14A_N",472,"Roztoki",21.583333,49.716667,230,"POL","Poland",25,2,2,2,NA,NA
559,"ROZ1B_N",472,"Roztoki",21.583333,49.716667,230,"POL","Poland",44,4,1,2,NA,NA
560,"RUDU2",473,"Rudushskoe Lake",27.55,56.5,150,"LVA","Latvia",32,1,1,2,NA,NA
561,"RUGOZERO",474,"Rugozero",32.633333,64.083333,140,"RUS","Russia",37,2,1,2,NA,NA
562,"RUKATUN",475,"Rukatunturi",29.15,66.166667,462,"FIN","Finland",18,2,1,2,NA,NA
563,"RYONANSU",476,"Ryönänsuo",24.166667,60.433333,70,"FIN","Finland",73,10,1,2,NA,NA
564,"S19KSTRM",477,"Kostroma",40,58,127,"RUS","Russia",57,0,NA,NA,NA,NA
565,"S1MAJA",478,"Pervoe Maya",37.184444,56.367222,150,"RUS","Russia",127,0,NA,NA,NA,NA
566,"S3PLESHV",479,"Plesheevo Lake",38.5,56.75,148,"RUS","Russia",101,2,1,1,240,830
567,"S84",480,"Lake Skrzetuszewskie",17.360556,52.55,109,"POL","Poland",82,4,2,2,NA,NA
568,"S87",480,"Lake Skrzetuszewskie",17.360556,52.55,109,"POL","Poland",83,18,2,2,NA,NA
569,"SABBION1",481,"Sabbion",7.473333,44.13,2216,"FRA","France",31,2,1,2,NA,NA
570,"SAISIES2",482,"Les Saisies",6.476944,45.737222,1570,"FRA","France",56,0,NA,NA,NA,NA
571,"SAKSUNAR",483,"Saksunarvatn",-7.183333,62.25,23,"FRO","Faroe Islands",45,16,2,2,NA,NA
572,"SALDROPO",484,"Saldropo",-2.716667,43.05,625,"ESP","Spain",76,3,1,2,NA,NA
573,"SAMBOTOT",485,"Lake Sambösjön",12.416667,57.133333,35,"SWE","Sweden",111,15,2,2,NA,NA
574,"SANRAFA",486,"San Rafael",-2.601389,36.773611,0,"ESP","Spain",160,6,1,2,NA,NA
575,"SARKIKAN",487,"Särkikangas",29.2,65.916667,265,"FIN","Finland",24,3,2,2,NA,NA
576,"DUERREN2",176,"Dürrenecksee-Moor",13.875,47.173611,1694,"AUT","Austria",35,0,NA,NA,NA,NA
577,"SEAMERE",488,"Sea Mere",1.004444,52.570556,38,"GBR","United Kingdom",82,0,NA,NA,NA,NA
578,"SERNA",489,"Serni",40.480556,43.666667,2485,"RUS","Russia",13,2,1,2,NA,NA
579,"SERRENT1",490,"Serrent",-2.468056,47.809444,75,"FRA","France",49,3,1,2,NA,NA
580,"SERRENT2",490,"Serrent",-2.468056,47.809444,75,"FRA","France",36,3,1,2,NA,NA
581,"SEVRZEML",491,"Vevilov Ice Cap",95.35,79.45,665,"RUS","Russia",62,0,NA,NA,NA,NA
582,"SHABLA",492,"Lake Shabla-Ezeretz",28.55,43.583333,1,"BGR","Bulgaria",39,9,1,2,NA,NA
583,"SHEPET1",493,"Shepeta Bog",25.166667,55.783333,110,"LTU","Lithuania",22,0,1,2,NA,NA
584,"SHOMBA",494,"Shombashuo",32.633333,65.116667,100,"RUS","Russia",28,2,1,2,NA,NA
585,"SHOTTHAM",495,"Shottisham",1.4,52.033333,20,"GBR","United Kingdom",6,0,NA,NA,NA,NA
586,"SIBISTA",496,"Sibista",41.430556,43.233333,2160,"GEO","Georgia",29,2,1,2,NA,NA
587,"SIGURET",497,"Lac de Siguret",6.556944,44.613611,1066,"FRA","France",114,2,NA,NA,NA,NA
588,"SIGVALDE",498,"Sigvalde Trask",18.5,57.333333,40,"SWE","Sweden",32,0,NA,NA,NA,NA
589,"SIIKASUO",499,"Siikasuo",22.066667,61.3,35,"FIN","Finland",59,5,2,2,5,NA
590,"SIONASCA",500,"Loch Sionascaig",-5.175,58.060556,74,"GBR","United Kingdom",148,7,2,2,NA,560
591,"SIPOLA",501,"Sipola",24.791667,65.05,7,"FIN","Finland",19,1,1,2,NA,NA
592,"SIXTE79",502,"Saint Sixte",5.628611,45.425833,720,"FRA","France",89,3,1,2,NA,200
593,"SIXTE85",502,"Saint Sixte",5.628611,45.425833,720,"FRA","France",75,3,2,2,NA,NA
594,"SJSL972",503,"Lac Saint Léger",6.336389,44.42,1308,"FRA","France",134,2,1,2,NA,NA
595,"SJSLC",503,"Lac Saint Léger",6.336389,44.42,1308,"FRA","France",35,1,NA,NA,NA,NA
596,"SJSLS",503,"Lac Saint Léger",6.336389,44.42,1308,"FRA","France",53,5,2,2,NA,NA
597,"SK-5-A",504,"Hozelec",18.3,49.05,685,"SVK","Slovakia",36,3,2,2,NA,NA
598,"SKRECON",505,"Skrecon",18.383333,49.883333,203,"CZE","Czech Republic",21,0,NA,NA,NA,NA
599,"SKRECON2",505,"Skrecon",18.383333,49.883333,203,"CZE","Czech Republic",16,0,NA,NA,NA,NA
600,"SKVARRAN",506,"Skvarran",16.15,57.2,86,"SWE","Sweden",31,6,2,2,NA,920
601,"SLADEOAK",507,"Sladeoak Lane",-0.518333,51.585278,74,"GBR","United Kingdom",26,0,NA,NA,NA,NA
602,"SLATTEN",508,"Slatten",13.016667,56.433333,15,"SWE","Sweden",16,0,NA,NA,NA,NA
603,"SLOP1_N",509,"Slopiec",20.783333,50.783333,248,"POL","Poland",122,0,1,1,NA,NA
604,"SLOP2_N",509,"Slopiec",20.783333,50.783333,248,"POL","Poland",68,11,2,2,NA,NA
605,"SLUGGANM",510,"Sluggan",-6.258333,54.776944,52,"GBR","United Kingdom",115,40,2,2,NA,NA
606,"SML",511,"Moselotte",7,48.031944,1290,"FRA","France",88,7,2,2,NA,NA
607,"SMURAICH",512,"Lochan an Smuraich",-4.894444,58.320556,37,"GBR","United Kingdom",35,0,NA,NA,NA,NA
608,"SNELLEG",513,"Snellegem",3.28,51.186667,12,"BEL","Belgium",52,1,2,2,NA,NA
609,"SO4",514,"Marais de la Perge",-1.010278,45.3975,2,"FRA","France",29,1,1,2,NA,NA
610,"SO6",515,"Le Marais de la Perge (South)",-1.115,45.3825,2,"FRA","France",24,6,1,2,NA,NA
611,"SOGUT",516,"Sögüt Gölü",29.898333,36.9975,1400,"TUR","Turkey",51,3,1,2,NA,335
612,"SOLNECH",517,"Solnechnoe",34.333333,65.833333,10,"RUS","Russia",41,2,2,2,50,NA
613,"SOLOKT",518,"Solokiya",24.166667,50.416667,190,"UKR","Ukraine",20,0,2,2,NA,NA
614,"SOLSOE81",519,"Lake Solso",8.633333,56.133333,41,"DNK","Denmark",66,34,1,2,NA,NA
615,"SOLSOE83",519,"Lake Solso",8.633333,56.133333,41,"DNK","Denmark",26,7,1,2,NA,NA
616,"SONBOU",520,"Son Bou",4.027222,39.924722,12,"ESP","Spain",24,0,1,2,NA,NA
617,"SOSVIATS",521,"Mire Sosvyatskoe",32,56.2,175,"RUS","Russia",23,1,1,2,NA,NA
618,"SPAJALLS",522,"Spjällsjön",14.594444,56.688889,146,"SWE","Sweden",39,6,2,2,NA,NA
619,"SPEZET",523,"Menez-Cam",-3.5,48.25,133,"FRA","France",40,3,1,2,NA,NA
620,"SPISBELA",524,"Spisska Bela",20.45,49.184722,625,"SVK","Slovakia",14,0,NA,NA,NA,NA
621,"SPITS",525,"Semmeldalen",15.333333,76.668333,25,"SJM","Svalbard and Jan Mayen",16,3,1,2,NA,NA
622,"SRE4",526,"Lake Srebarna",27.116667,44.083333,20,"BGR","Bulgaria",36,1,1,2,NA,NA
623,"SREBAR",526,"Lake Srebarna",27.116667,44.083333,20,"BGR","Bulgaria",42,1,NA,NA,NA,NA
624,"STANGSMY",527,"Stangsmyr",18.366667,57.333333,65,"SWE","Sweden",22,0,NA,NA,NA,NA
625,"STEKLIN",528,"Steklin",18.983333,52.933333,73,"POL","Poland",93,1,2,2,NA,NA
626,"STRALOCH",529,"Straloch",-3.566667,56.75,260,"GBR","United Kingdom",36,0,NA,NA,NA,NA
627,"STRATHY3",530,"Strath Oykell",-4.833611,58.073889,184,"GBR","United Kingdom",101,0,NA,NA,NA,NA
628,"STSAU",531,"Saint Sauveur",3.916667,43.566389,1,"FRA","France",149,1,1,2,NA,NA
629,"STTHOMAS",532,"Saint-Thomas",-1.75,47.268611,1,"FRA","France",101,4,1,2,NA,NA
630,"STUPINO",533,"Stupino",39.833333,52.25,95,"RUS","Russia",18,4,2,2,NA,NA
631,"STVIAUD",534,"Saint Viaud Contin",-2.016667,47.265,2,"FRA","France",70,3,1,2,NA,NA
632,"SUCHED93",535,"Suchedniow",20.85,51.05,255,"POL","Poland",66,0,1,1,NA,NA
633,"SUDOB_2",536,"Sudoble Lake",28.1,54.033333,165,"BLR","Belarus",12,0,1,1,NA,NA
634,"SUDOBLE",536,"Sudoble Lake",28.1,54.033333,165,"BLR","Belarus",61,8,2,2,NA,NA
635,"SUH2",537,"Dry Lake II",23.533333,42.05,1900,"BGR","Bulgaria",139,2,1,2,NA,NA
636,"SUOVAL",538,"Suovalampi",28.833333,69.583333,104,"FIN","Finland",34,5,2,2,NA,NA
637,"SVATOBOR",539,"Svatoborice-Mistrin",17.166667,48.833333,175,"CZE","Czech Republic",48,5,2,2,NA,NA
638,"SVENC",540,"Svencele Bog",21.292222,55.495278,7,"LTU","Lithuania",51,4,2,2,NA,NA
639,"SVITJAS",541,"Svitjaz",25.916667,53.433333,242,"BLR","Belarus",28,0,2,2,NA,NA
640,"SYRJALAN",542,"Syrjälänsuo",28.116667,61.216667,83,"FIN","Finland",81,6,2,2,NA,NA
641,"SZYM_N",543,"Szymbark",21.1,49.633333,465,"POL","Poland",96,5,2,2,NA,NA
642,"TADCASTE",544,"Tadcaster",-1.233333,53.883333,17,"GBR","United Kingdom",84,0,NA,NA,NA,NA
643,"TAR1_N",545,"Tarnawa Wyzna",22.833333,49.1,670,"POL","Poland",83,0,1,2,NA,650
644,"TAR2_N",545,"Tarnawa Wyzna",22.833333,49.1,670,"POL","Poland",63,8,1,2,NA,NA
645,"TARFFLG",546,"Loch Tarff",-4.595833,57.154167,291,"GBR","United Kingdom",41,0,NA,NA,NA,NA
646,"TARFFPG",546,"Loch Tarff",-4.595833,57.154167,291,"GBR","United Kingdom",50,0,1,2,NA,NA
647,"TARW_N",547,"Tarnowiec",21.616667,49.7,220,"POL","Poland",62,9,2,2,NA,220
648,"TATLI",548,"Tatli Gölü",36.066667,41.566667,0,"TUR","Turkey",25,0,NA,NA,NA,NA
649,"TEGULD",549,"Teguldet",88.166667,57.333333,150,"RUS","Russia",55,3,NA,NA,NA,NA
650,"TENAGI1",550,"Tenaghi Philippon",24.783333,40.983333,10,"GRC","Greece",26,5,1,2,NA,NA
651,"TG8",551,"Delta del Rio Besos",2.248333,41.380278,0,"ESP","Spain",52,1,1,2,NA,NA
652,"THORPE",552,"Thorpe Bulmer",-1.3,54.716667,100,"GBR","United Kingdom",199,3,1,2,NA,NA
653,"TM1",553,"Tschokljovo Marsh",22.833333,42.366667,870,"BGR","Bulgaria",30,6,1,2,NA,NA
654,"TO-25",554,"Lake Balaton (Southwest)",17.735,46.818333,104,"HUN","Hungary",98,0,1,2,NA,NA
655,"TO-30",555,"Lake Balaton (Centre)",17.400833,46.744444,104,"HUN","Hungary",95,1,1,1,NA,NA
656,"TO-9",556,"Lake Balaton (Northeast)",18.104167,47.001667,104,"HUN","Hungary",23,0,1,2,NA,NA
657,"TOMTABAC",557,"Åkerhultagöl [Tomtabaken]",14.466667,57.483333,303,"SWE","Sweden",43,14,2,2,NA,NA
658,"TONDII",558,"Tondi",24.916667,59.466667,40,"EST","Estonia",58,3,1,2,NA,NA
659,"TOPPELA",559,"Toppeladugärd",13.366667,55.6,35,"SWE","Sweden",40,3,1,2,NA,NA
660,"TORNOS01",560,"Puerto de Los Tornos",-3.433333,43.15,920,"ESP","Spain",48,4,1,2,NA,NA
661,"TOURVES",561,"Tourves",5.9,43.5,298,"FRA","France",117,8,NA,NA,NA,NA
662,"TROLLVAT",562,"Trollvatnet",23.466667,69.875,188,"NOR","Norway",34,5,2,2,NA,NA
663,"TRUMER",563,"Trumer Moos",13.077778,47.944444,500,"AUT","Austria",54,1,2,2,0,620
664,"TRUMMTOT",564,"Lake Trummen",14.833333,56.866667,161,"SWE","Sweden",98,0,2,2,NA,NA
665,"TUIU",565,"Mire Johvika",22.333333,58.5,32,"EST","Estonia",25,5,1,2,NA,NA
666,"TULLERIN",566,"Tullerinsuo",21.95,61.333333,29,"FIN","Finland",60,4,1,2,NA,NA
667,"TUZLA",567,"Tuzla Gölü",35.8275,39.033333,1127,"TUR","Turkey",16,0,NA,NA,NA,NA
668,"TYTUV",568,"Tytuvenu Tyrelis",23.3,55.583333,125,"LTU","Lithuania",52,0,2,2,NA,NA
669,"UBERLING",569,"Grosses Überling Schattseit-Moor",13.9,47.172222,1750,"AUT","Austria",65,5,2,1,0,840
670,"UITBERG",570,"Uitbergen",3.944722,51.017778,4,"BEL","Belgium",15,2,1,2,NA,NA
671,"URMIA",571,"Lake Urmia",45.466667,37.583333,1265,"IRN","Iran, Islamic Republic of",12,0,NA,NA,NA,NA
672,"URMIA20",571,"Lake Urmia",45.466667,37.583333,1265,"IRN","Iran, Islamic Republic of",51,2,1,2,NA,NA
673,"USTMASH",572,"Ust'Mashevskoe",57.883333,56.316667,220,"RUS","Russia",51,5,2,2,NA,NA
674,"USTPECH",573,"Ust'-Pechersk",54.5,64.75,132,"RUS","Russia",20,0,NA,NA,NA,NA
675,"VALPROV2",133,"Vallon de Provence",6.404167,44.391111,2075,"FRA","France",83,6,1,2,NA,NA
676,"VALTAVAA",574,"Valtavaaranlampi",29.183333,66.166667,417,"FIN","Finland",30,0,NA,NA,NA,NA
677,"VAN",575,"Lake Van",43,38.5,1645,"TUR","Turkey",84,0,2,2,NA,NA
678,"VASIKKAS",452,"Vasikkasuo",27.866667,64.666667,270,"FIN","Finland",59,4,1,2,NA,NA
679,"VATNSMO1",576,"Vatnsmyri I",-21.945,64.136111,5,"ISL","Iceland",16,0,NA,NA,NA,NA
680,"VEGORIT",577,"Vegoritis 8",21.75,40.75,570,"GRC","Greece",29,0,2,2,NA,NA
681,"VEJLBYE4",578,"Vejlby",9.716667,55.616667,10,"DNK","Denmark",20,0,NA,NA,NA,NA
682,"VEJLBYG5",578,"Vejlby",9.716667,55.616667,10,"DNK","Denmark",24,0,NA,NA,NA,NA
683,"VENICE",222,"Venice",12.25,45.5,22,"ITA","Italy",21,0,NA,NA,NA,NA
684,"VERNER",579,"Vernerovice",16.195833,50.621667,492,"CZE","Czech Republic",38,9,2,2,0,173
685,"VINGOL",580,"Vingölen",15.95,57.133333,104,"SWE","Sweden",32,6,2,2,NA,NA
686,"VISHN",581,"Vishnevskoye Lake",29.516944,60.502222,17,"RUS","Russia",31,1,1,2,NA,NA
687,"VITAVATT",582,"Vitavattsgyl",15.116667,56.333333,70,"SWE","Sweden",13,0,NA,NA,NA,NA
688,"VIVIIS",583,"Lake Viviis",22.783333,39.583333,50,"GRC","Greece",15,0,NA,NA,NA,NA
689,"VNEMCICE",584,"Velke Nemcice",16.683333,48.991667,177,"CZE","Czech Republic",8,1,NA,NA,NA,NA
690,"VOHMA",585,"Vôhma Mire",27.333333,59.05,46,"EST","Estonia",50,14,2,2,NA,NA
691,"VOISE",586,"Vallée de la Voise",1.75,48.416667,150,"FRA","France",62,5,1,2,NA,NA
692,"VOLOS",587,"Lake Volos",27.116667,55.766667,120,"BLR","Belarus",26,0,NA,NA,NA,NA
693,"VOLVI",588,"Volvi 6",23.5,40.75,100,"GRC","Greece",23,0,NA,NA,NA,NA
694,"VRACOV",589,"Vracov",17.202778,48.977778,192,"CZE","Czech Republic",103,1,NA,NA,NA,NA
695,"W_WAW15",590,"Warszawa Wawrzyszew",20.941667,52.286111,98,"POL","Poland",75,0,NA,NA,NA,NA
696,"WELNEY",591,"Welney Washes",0.25,52.516667,2,"GBR","United Kingdom",86,8,2,2,NA,NA
697,"WEST",592,"Mire Pelisoo",22.383333,58.466667,33,"EST","Estonia",57,5,2,2,NA,NA
698,"WIGGENHA",593,"Wiggenhall St. Germans",0.339444,52.692778,1,"GBR","United Kingdom",30,3,1,2,NA,NA
699,"WILLINGH",594,"Willingham Mere",-0.057222,52.339722,2,"GBR","United Kingdom",35,2,1,2,NA,NA
700,"W-KASP",595,"Warsaw Kasprzak Street",20.980833,52.230278,110,"POL","Poland",65,0,NA,NA,NA,NA
701,"XK120",596,"Black Sea (South)",28.485,42.0675,-94,"BGR","Bulgaria",11,1,1,2,NA,NA
702,"XK-55",597,"Black Sea (Southwest 2)",28.888889,42.0675,0,"BGR","Bulgaria",13,1,1,2,NA,NA
703,"YAMANT",598,"Yamant-Nur",102.6,49.9,1000,"MNG","Mongolia",43,1,NA,NA,NA,NA
704,"YESNABY",599,"Yesnaby",-3.333333,59.016667,17,"GBR","United Kingdom",25,0,NA,NA,NA,NA
705,"YLIMYSNE",600,"Ylimysneva",22.866667,62.133333,172,"FIN","Finland",51,4,1,2,NA,NA
706,"ZABOIN94",601,"Zaboinoe Lake",62.366667,55.533333,275,"RUS","Russia",56,0,1,2,NA,NA
707,"ZALT",602,"Zalozhtsy",25.45,49.75,320,"UKR","Ukraine",24,15,2,2,NA,NA
708,"ZAPOVED",603,"Zapovednoe",32.633333,65.116667,110,"RUS","Russia",24,2,1,2,NA,580
709,"ZARUCKOE",604,"Zaruckoe",36.25,63.9,20,"RUS","Russia",32,5,2,2,NA,NA
710,"ZAVIDKOV",605,"Zavidkovice",15.408333,49.647222,430,"CZE","Czech Republic",20,0,NA,NA,NA,NA
711,"ZBUDOV1",606,"Zbudovska blata",14.330556,49.833333,380,"CZE","Czech Republic",29,3,2,2,20,240
712,"ZBUDOV2",606,"Zbudovska blata",14.330556,49.833333,380,"CZE","Czech Republic",22,1,1,2,0,200
713,"ZELLHOF",607,"Wasenmoos beim Zellhof",13.105556,47.986111,505,"AUT","Austria",63,1,1,2,0,620
714,"ZERIBAR",608,"Lake Zeribar",46.116667,35.533333,1288,"IRN","Iran, Islamic Republic of",142,7,1,2,NA,NA
715,"ZIRBEN",609,"Zirbenwaldmoor",11.025,46.858333,2150,"AUT","Austria",66,7,2,2,0,330
716,"ZIRBEN1",609,"Zirbenwaldmoor",11.025,46.858333,2150,"AUT","Austria",11,0,NA,NA,NA,NA
717,"ZS-9",610,"Zsombo Swamp",19.994167,46.361389,92,"HUN","Hungary",54,2,1,2,120,NA
718,"ZURATKUL",611,"Zuratkul'",59.266667,54.9,720,"RUS","Russia",39,0,2,2,NA,NA
719,"ZYR2-69",612,"Zyrardow",20.444444,52.053611,117,"POL","Poland",152,0,NA,NA,NA,NA
720,"JASLO",613,"Jaslo",21.466667,49.783333,250,"POL","Poland",42,2,1,2,240,350
721,"PRARION",614,"Plateau de Prarion",6.749444,45.884722,1857,"FRA","France",47,0,NA,NA,NA,NA
722,"PRE2",615,"Col du Pré",6.610556,45.689167,1730,"FRA","France",61,0,NA,NA,NA,NA
723,"BLEEKEMR",616,"Bleekemeer",5.75,52.25,25,"NLD","Netherlands",94,0,NA,NA,NA,NA
724,"BOSHEI3",617,"Bosscherheide",6.094722,51.578611,18,"NLD","Netherlands",12,3,1,2,NA,NA
725,"CLEAT",618,"Loch Cleat",-6.277778,57.6225,163,"GBR","United Kingdom",63,10,2,2,NA,NA
726,"GEORGENF",619,"Georgenfelder Hochmoor",13.75,50.75,860,"DEU","Germany",31,9,2,2,NA,NA
727,"HOPSEIDT",620,"Lake Hopseidet",27.716667,70.833333,225,"NOR","Norway",53,4,2,2,NA,NA
728,"IFJORD",621,"Lake Ifjord",27.633333,70.433333,317,"NOR","Norway",93,4,2,2,NA,NA
729,"KRUMPA",622,"Krumpa",11.85,51.3,622,"DEU","Germany",43,6,2,2,NA,NA
730,"LAKERACZ",623,"Lake Racze",14.666667,53.916667,-9,"POL","Poland",89,10,2,2,NA,1020
731,"MARIAH",624,"Mariahout",5.545,51.523333,14,"NLD","Netherlands",27,2,1,2,NA,NA
732,"MEKELMR",625,"Mekelermeer",6.616667,52.766667,15,"NLD","Netherlands",245,4,2,1,NA,NA
733,"MEODAL",626,"Loch Meodal",-5.866667,57.133333,105,"GBR","United Kingdom",74,1,1,2,NA,NA
734,"MFM6T",627,"Meerfelder Maar",6.75,50.1,336,"DEU","Germany",217,0,1,2,NA,NA
735,"MIK2_N",628,"Lake Mikolajki",21.418056,53.768056,116,"POL","Poland",16,6,2,2,NA,NA
736,"NOTSEL",629,"Notsel",4.769444,51.554167,5,"NLD","Netherlands",62,4,1,2,130,NA
737,"OUVEIL2",630,"Etang d'Ouveillan",3,43.266667,6,"FRA","France",24,3,1,2,NA,NA
738,"PLAINEP",631,"Plaine Alpe",6.594167,44.963889,1850,"FRA","France",40,1,1,2,NA,NA
739,"PREROND",632,"Pré Rond",6.594167,44.918889,1800,"FRA","France",38,2,1,2,NA,NA
740,"PUSZDARZ",633,"Darzlubie Forest",18.166667,54.7,40,"POL","Poland",80,13,2,2,NA,NA
741,"SCHWEMA3",634,"Schwemm",12.3,47.658333,671,"AUT","Austria",87,4,1,1,NA,NA
742,"SCHWEMB1",634,"Schwemm",12.3,47.658333,671,"AUT","Austria",131,4,2,2,0,1420
743,"SCHWEMB5",634,"Schwemm",12.3,47.658333,671,"AUT","Austria",84,9,2,2,0,830
744,"SCHWEMF4",634,"Schwemm",12.3,47.658333,671,"AUT","Austria",61,2,1,1,NA,NA
745,"SKAIDJVR",635,"Lake Skaidejavri",27.866667,70.000833,183,"FIN","Finland",100,5,2,2,NA,NA
746,"THZM4AB",636,"Holzmaar",8.878889,50.116667,425,"DEU","Germany",85,0,1,2,NA,NA
747,"TSUOLJVR",637,"Lake Tsuolbmajavri",22.083333,68.691667,526,"FIN","Finland",146,14,2,2,NA,NA
748,"UDDELMR",638,"Uddelermeer",5.761944,52.236944,26,"NLD","Netherlands",100,4,2,1,NA,NA
749,"WA3ROH",639,"Wachel 3",8.868889,53.438889,17,"DEU","Germany",104,7,2,2,NA,NA
750,"WOLIN2",640,"Wolin II",14.666667,53.833333,5,"POL","Poland",56,9,2,2,NA,NA
751,"WOR80_N",641,"Woryty",20.2,53.75,105,"POL","Poland",101,6,1,1,NA,NA
752,"WOR82_N",641,"Woryty",20.2,53.75,105,"POL","Poland",84,14,2,2,NA,NA
753,"ZPEAT76",642,"Zarnowiec Peat Bog",18.116667,54.716667,5,"POL","Poland",86,8,2,2,NA,NA
754,"ACHIT2",49,"Achit-Nur",90.6,49.5,1435,"MNG","Mongolia",11,1,NA,NA,NA,NA
755,"ACHIT6",49,"Achit-Nur",90.6,49.5,1435,"MNG","Mongolia",11,3,NA,NA,NA,NA
756,"ADRAN",643,"Adran",18.016667,59.066667,40,"SWE","Sweden",45,5,-99,1,NA,NA
757,"ASP3",644,"El Asperillo",-6.833333,37.071111,15,"ESP","Spain",56,0,NA,NA,NA,NA
758,"BALCERE",645,"Balcère",2.055,42.590833,1764,"FRA","France",69,0,NA,NA,NA,NA
759,"BARCA",646,"Barcaggio",9.403611,43.005833,2,"FRA","France",22,0,NA,NA,NA,NA
760,"BASTANI1",647,"Bastani",9.132222,42.065833,2089,"FRA","France",51,0,NA,NA,NA,NA
761,"BASTANI2",647,"Bastani",9.132222,42.065833,2089,"FRA","France",49,0,NA,NA,NA,NA
762,"BCOMBE2",648,"Bonnecombe",3.125,44.566667,1340,"FRA","France",26,0,NA,NA,NA,NA
763,"BEILLARD",649,"Le Beillard",6.801111,48.073333,605,"FRA","France",70,5,1,1,NA,NA
764,"BELIER",650,"Lac du Mont de Belier",2.643056,45.337778,860,"FRA","France",75,10,1,1,NA,NA
765,"BISCAYE1",651,"Biscaye",-0.083333,43.033333,409,"FRA","France",205,17,2,1,NA,NA
766,"BOBERT",652,"Moskovskiy Bobrik",34.5,50.55,135,"UKR","Ukraine",13,0,1,2,NA,NA
767,"BOBROV",653,"Bobrov",19.566667,49.445833,620,"SVK","Slovakia",46,13,2,2,NA,NA
768,"BOGBOLT",654,"Bolotnya",23.95,50.333333,190,"UKR","Ukraine",12,0,1,2,NA,NA
769,"BUIR",655,"Buir-Nur",117.7,47.75,583,"MNG","Mongolia",35,3,NA,NA,NA,NA
770,"CANNUTA",656,"Cannuta",9.1,42.5,12,"FRA","France",24,0,NA,NA,NA,NA
771,"CAPITELL",657,"Capitello",9.006111,42.21,1930,"FRA","France",30,0,NA,NA,NA,NA
772,"CASTET1",658,"Castet",-0.366667,43.033333,850,"FRA","France",47,0,NA,NA,NA,NA
773,"CASTET2",658,"Castet",-0.366667,43.033333,850,"FRA","France",80,0,NA,NA,NA,NA
774,"CETULAT",659,"Tsetula",24,50,235,"UKR","Ukraine",5,0,1,2,NA,NA
775,"CHA1",660,"Lac de Champlong",7.806944,45.825,2300,"ITA","Italy",24,1,NA,NA,NA,NA
776,"CHAUVET1",661,"Montchauvet",3.399167,44.900833,1425,"FRA","France",19,1,NA,NA,NA,NA
777,"COOLT",662,"Kulichkovskoye",24.116667,50.333333,190,"UKR","Ukraine",12,0,1,2,NA,NA
778,"CREICHCA",663,"Creich Castle",-3.083333,56.383333,400,"GBR","United Kingdom",15,3,1,1,NA,NA
779,"CRENO",664,"Lac de Creno",8.9475,42.200833,1280,"FRA","France",69,10,2,1,NA,NA
780,"CRET",665,"Tourbière Lo Cret",7.841667,45.907778,1869,"ITA","Italy",23,0,NA,NA,NA,NA
781,"CUREBIAS",666,"Curebiasse",3.595,44.595,1355,"FRA","France",20,0,NA,NA,NA,NA
782,"DABA3",163,"Daba-Nur",98.794444,48.2,2465,"MNG","Mongolia",13,2,NA,NA,NA,NA
783,"DANYAG6",667,"Danyagiin-Hara-Nur",88.95,48.616667,2493,"MNG","Mongolia",12,1,NA,NA,NA,NA
784,"DAYAN",668,"Dayan-Nur",88.833333,48.366667,2232,"MNG","Mongolia",25,2,NA,NA,NA,NA
785,"DED",669,"Velky Ded",17.216667,50.083333,1380,"CZE","Czech Republic",15,4,2,2,0,70
786,"DOLINA",670,"Zlatnicka Dolina",19.283333,49.516667,850,"SVK","Slovakia",71,5,2,2,NA,NA
787,"DONVOLD",671,"Donvold",13.583333,68.133333,10,"NOR","Norway",48,6,2,2,NA,NA
788,"DRASSANE",672,"Drassanes",2.181667,41.376389,6,"ESP","Spain",28,2,1,1,NA,NA
789,"DUND2",673,"Dund-Nur",89.791667,49.5,2097,"MNG","Mongolia",15,2,NA,NA,NA,NA
790,"DUND8",673,"Dund-Nur",89.791667,49.5,2097,"MNG","Mongolia",18,2,NA,NA,NA,NA
791,"ELANMORE",674,"Ellanmore",-3.283333,58.3,100,"GBR","United Kingdom",30,7,NA,NA,NA,NA
792,"ENFERS",675,"Les Enfers",7.036389,47.284444,965,"CHE","Switzerland",42,2,1,1,NA,NA
793,"ESTAGNE1",676,"L'Estagnon",1.372322,42.804934,1307,"FRA","France",78,0,NA,NA,NA,NA
794,"ESTAGNE2",676,"L'Estagnon",1.372322,42.804934,1307,"FRA","France",60,0,NA,NA,NA,NA
795,"EULALIE",677,"Sainte Eulalie",3.453056,44.783889,1200,"FRA","France",52,0,NA,NA,NA,NA
796,"FOURNAS",678,"Ruisseau du Fournas",2.058889,42.7,1500,"FRA","France",64,0,NA,NA,NA,NA
797,"FRASNE1",679,"Frasne",6.162222,46.831389,840,"FRA","France",68,4,1,1,NA,NA
798,"FREYCH1",680,"Freychinède",1.430976,42.800784,1350,"FRA","France",130,0,NA,NA,NA,NA
799,"FREYCH2",680,"Freychinède",1.430976,42.800784,1350,"FRA","France",75,6,2,1,NA,NA
800,"GARASEL",681,"Garaselet (Byskeälven)",19.933333,65.333333,293,"SWE","Sweden",30,10,1,1,NA,NA
801,"GIRALDES",682,"Forêt de Giraldès",3.597222,44.666944,1420,"FRA","France",9,0,NA,NA,NA,NA
802,"GUTT",683,"Nowy Gutiski",26.833333,50.266667,210,"UKR","Ukraine",50,0,2,2,NA,NA
803,"HARAUS2",684,"Hara-Us-Nur",92,47.916667,1156,"MNG","Mongolia",10,1,NA,NA,NA,NA
804,"HARAUS6",684,"Hara-Us-Nur",92,47.916667,1156,"MNG","Mongolia",6,2,NA,NA,NA,NA
805,"HEINALAM",685,"Heinälampi",27.65,63.116667,90,"FIN","Finland",135,0,NA,NA,NA,NA
806,"HOVIA",686,"Hovi A",-6.75,61.516667,12,"FRO","Faroe Islands",34,0,NA,NA,NA,NA
807,"HUDO3",687,"Hudo-Nur",99.533333,48.133333,2060,"MNG","Mongolia",47,2,NA,NA,NA,NA
808,"HUDO8",687,"Hudo-Nur",99.533333,48.133333,2060,"MNG","Mongolia",59,4,NA,NA,NA,NA
809,"HUHNUR",688,"Huh-Nur",98.516667,47.533333,2649,"MNG","Mongolia",16,1,NA,NA,NA,NA
810,"IOSIPOVO",689,"Iosipovo",28,51.2,8,"UKR","Ukraine",11,2,1,2,NA,NA
811,"JEDLOVA",690,"Jedlova",19.663889,49.508333,650,"SVK","Slovakia",38,0,NA,NA,NA,NA
812,"JEU2",263,"Plan du Jeu",6.532222,45.607222,2010,"FRA","France",34,0,NA,NA,NA,NA
813,"JOLAN2",691,"Le Jolan",2.859167,45.139444,1120,"FRA","France",27,5,2,1,NA,NA
814,"KHOMIN",692,"Khomin Mokh",28,51.2,8,"UKR","Ukraine",21,4,2,2,NA,NA
815,"KOLCZEWO",693,"Kolczewo",14.666667,53.916667,15,"POL","Poland",152,15,2,2,NA,NA
816,"KOLMILOU",694,"Kolmiloukkonen",28.483333,66.233333,344,"FIN","Finland",78,5,1,2,NA,NA
817,"KROSSHOL",695,"Krossholsmyri",-17.905556,66.098611,25,"ISL","Iceland",23,0,-99,1,NA,NA
818,"LABARTHE",696,"Tourbière de la Barthe",2.787222,45.495,1200,"FRA","France",65,0,NA,NA,NA,NA
819,"LABORDE",697,"Tourbière de la Borde",2.083333,42.533333,1660,"FRA","France",85,4,NA,NA,NA,NA
820,"LAGOA_CO",698,"Lagoa Comprida 2",-7.636111,40.362778,1650,"PRT","Portugal",88,4,1,2,NA,NA
821,"LAIT1",307,"Lac du Lait",6.816667,45.315278,2190,"FRA","France",74,0,NA,NA,NA,NA
822,"LANDOS1",699,"Landos",3.825,44.85,1070,"FRA","France",66,10,1,1,NA,NA
823,"LAPIGNE",700,"Tourbiere de la Pigne",3.786111,45.710833,1350,"FRA","France",49,0,NA,NA,NA,NA
824,"LAURENTI",701,"Ruisseau de Laurenti",2.029444,42.675,1860,"FRA","France",94,0,NA,NA,NA,NA
825,"LESTIVAL",702,"L'Estivalet",3.385556,44.855833,1120,"FRA","France",15,4,1,1,NA,NA
826,"LESUC1",703,"Le Suc",2.904722,45.377222,1210,"FRA","France",101,4,NA,NA,NA,NA
827,"LESUC2",703,"Le Suc",2.904722,45.377222,1210,"FRA","France",18,6,1,2,NA,NA
828,"LEVEANIE",704,"Leveäniemi",21.016667,67.633333,365,"SWE","Sweden",59,5,2,1,NA,NA
829,"LISI",705,"Lisi",44.683333,41.783333,622,"GEO","Georgia",93,0,1,2,NA,NA
830,"LKBT",706,"Bolotnoye",24.8,51.05,184,"UKR","Ukraine",17,17,2,2,NA,NA
831,"LOD",707,"Lac de Lod",7.609722,45.8025,1460,"ITA","Italy",35,2,1,2,250,620
832,"LODITOR",708,"Tourbière de Loditor",7.610123,45.800973,1470,"ITA","Italy",43,1,NA,NA,NA,NA
833,"LOPT",709,"Lopatin",24.833333,50.216667,200,"UKR","Ukraine",19,0,2,2,NA,NA
834,"LOURDE1",710,"Lourdes",-0.075,43.033333,430,"FRA","France",146,9,1,1,NA,NA
835,"MAJ",711,"Velky Maj",17.216667,50.05,1365,"CZE","Czech Republic",15,4,2,2,0,63
836,"MAKT",712,"Makovich",24.216667,50.966667,192,"UKR","Ukraine",44,0,1,2,NA,NA
837,"MIROSHY",713,"Miroshy",28,51.2,8,"UKR","Ukraine",22,4,2,2,NA,NA
838,"MONGE1",714,"Le Monge",-0.016667,43.05,394,"FRA","France",142,15,2,1,NA,NA
839,"MONTBAR",715,"Le Mont Bar",3.759167,45.197778,1008,"FRA","France",28,0,NA,NA,NA,NA
840,"MOOSALM",716,"Moossalmmoor",13.516667,47.75,740,"AUT","Austria",74,2,2,2,0,480
841,"MOSH1",717,"Moshkarnoe",34.05,62.25,58,"RUS","Russia",147,9,2,1,NA,NA
842,"MOULINAS",718,"Moulinasse",2.235556,42.683333,1330,"FRA","France",74,0,NA,NA,NA,NA
843,"MOURA1",719,"Le Moura",-1.55,43.45,43,"FRA","France",76,6,1,1,NA,NA
844,"MOURA2",719,"Le Moura",-1.55,43.45,43,"FRA","France",40,0,NA,NA,NA,NA
845,"NASSET",720,"Tourbière des Nassettes",3.641667,44.466667,1375,"FRA","France",23,0,1,1,NA,NA
846,"NEGRE",721,"Gourg Nègre",2.216667,42.633333,2080,"FRA","France",133,0,NA,NA,NA,NA
847,"ODENSEE",722,"Ödenseemoor",13.633333,47.616667,770,"AUT","Austria",68,3,2,2,0,675
848,"OSOEVT",723,"Osoyevka",35.216667,50.9,160,"UKR","Ukraine",19,0,1,2,NA,NA
849,"OSTRICO1",724,"Ostriconi",9.1,42.6,10,"FRA","France",22,0,NA,NA,NA,NA
850,"OSTRICO2",724,"Ostriconi",9.1,42.6,10,"FRA","France",20,0,NA,NA,NA,NA
851,"PADUL2",725,"Padul",-3.066667,37,785,"ESP","Spain",106,0,NA,NA,NA,NA
852,"PINET1",726,"Pinet",1.972222,42.865,880,"FRA","France",74,0,NA,NA,NA,NA
853,"PINET2",726,"Pinet",1.972222,42.865,880,"FRA","France",92,0,NA,NA,NA,NA
854,"PITKALAM",727,"Pitkälampi",30.5,62.25,82,"FIN","Finland",176,0,NA,NA,NA,NA
855,"PODT",728,"Maly Podleski",24.016667,49.916667,200,"UKR","Ukraine",17,0,1,2,NA,NA
856,"POLT",729,"Polonichka",24.75,50.266667,200,"UKR","Ukraine",19,0,1,2,NA,NA
857,"PRE1",615,"Col du Pré",6.610556,45.689167,1730,"FRA","France",47,0,NA,NA,NA,NA
858,"RANDON",730,"Randon",3.543056,44.666944,1520,"FRA","France",47,0,NA,NA,NA,NA
859,"RODSCH",731,"Rödschitzmoor",13.913333,47.560833,801,"AUT","Austria",45,2,1,1,NA,NA
860,"SAISIES1",482,"Les Saisies",6.476944,45.737222,1570,"FRA","France",44,0,NA,NA,NA,NA
861,"SALECCE",732,"Saleccia",9.204167,42.722778,15,"FRA","France",86,5,1,1,NA,NA
862,"SANDSJON",733,"Sandsjön",13.416667,56.75,158,"SWE","Sweden",127,0,NA,NA,NA,NA
863,"SERRE1",734,"Le Serre",2.1,42.55,1750,"FRA","France",22,0,NA,NA,NA,NA
864,"SERRE2",734,"Le Serre",2.1,42.55,1750,"FRA","France",26,0,NA,NA,NA,NA
865,"SHIRET",735,"Shiret-Nur",101.816667,46.533333,2500,"MNG","Mongolia",22,3,NA,NA,NA,NA
866,"ST-1T",736,"Stoyanov 1",24.633333,50.383333,198,"UKR","Ukraine",18,0,1,1,NA,NA
867,"SVAT",737,"Svyatoye 2",24.333333,51.1,183,"UKR","Ukraine",33,0,1,2,NA,NA
868,"SVINAVAT",738,"Svinavatn",-20.698333,64.101111,85,"ISL","Iceland",47,0,NA,NA,NA,NA
869,"SWIENSKU",739,"Swienskuhle DAH III",8.7225,53.671389,5,"DEU","Germany",88,8,2,2,NA,NA
870,"TAPH3",740,"La Taphanel",2.679167,45.274444,975,"FRA","France",75,11,2,2,NA,NA
871,"TAPH4",740,"La Taphanel",2.679167,45.274444,975,"FRA","France",51,2,1,1,NA,NA
872,"TERKHIN3",741,"Terkhiin-Tsagan-Nur",99.7,48.15,2060,"MNG","Mongolia",24,1,NA,NA,NA,NA
873,"TERKHIN8",741,"Terkhiin-Tsagan-Nur",99.7,48.15,2060,"MNG","Mongolia",35,8,NA,NA,NA,NA
874,"THRANDAR",742,"Thrandarholt",-20.357222,64.034444,80,"ISL","Iceland",18,0,NA,NA,NA,NA
875,"TJORN1",743,"Tjörnin",-21.937222,64.144444,2,"ISL","Iceland",14,0,NA,NA,NA,NA
876,"TOLBO2",744,"Tolbo-Nur",90.083333,48.65,2079,"MNG","Mongolia",10,1,NA,NA,NA,NA
877,"TSAGAN",745,"Tsagan-Nur",97.263889,47.65,2236,"MNG","Mongolia",20,3,NA,NA,NA,NA
878,"TUROVA",746,"Turova Dacha",24.1,48.9,8,"UKR","Ukraine",38,4,2,2,NA,NA
879,"URMIIN",747,"Urmiin-Tsagan-Nur",102.933333,48.841667,1450,"MNG","Mongolia",29,2,NA,NA,NA,NA
880,"VATNSKOT",748,"Vatnskotsvatn",-19.480556,65.701389,65,"ISL","Iceland",56,0,NA,NA,NA,NA
881,"VEAUX",749,"Tourbière les Veaux",7.094444,47.242778,1020,"CHE","Switzerland",21,1,1,1,NA,NA
882,"VERRA",750,"Pian di Verra superiore",7.691667,45.897222,2380,"ITA","Italy",13,0,NA,NA,NA,NA
883,"WAG-LG",751,"Wag",-3.65,58.2,190,"GBR","United Kingdom",7,5,NA,NA,NA,NA
884,"WINLESS",752,"Loch of Winless",-3.2,58.466667,9,"GBR","United Kingdom",66,10,2,1,NA,NA
885,"ZURAWIEC",753,"Zurawiec",16.5,54.416667,33,"POL","Poland",59,6,1,2,NA,NA
886,"ZVENIT",754,"Zvenigorod-Kotsurovskoye",24.233333,49.8,200,"UKR","Ukraine",14,0,1,2,NA,NA
887,"ASHIK",755,"Loch Ashik",-5.833333,57.25,30,"GBR","United Kingdom",46,10,2,2,NA,NA
888,"CHANGE",756,"Change-Glatinier",-0.788889,48.116667,102,"FRA","France",48,10,2,2,NA,NA
889,"FANGO08",757,"Le Fango",8.664167,42.416944,10,"FRA","France",105,4,1,1,NA,NA
890,"GORNO61",758,"Gorno",20.833333,50.85,240,"POL","Poland",66,0,1,2,NA,NA
891,"ALCUDIA",759,"Albufera Alcudia",3.119167,39.792778,0,"ESP","Spain",54,4,1,2,NA,NA
892,"N-CAS",760,"Hoya del Castillo",-0.5,41.25,260,"ESP","Spain",34,3,2,2,NA,NA
893,"N-GUA",761,"Laguna Guallar",-0.216667,41.4,336,"ESP","Spain",22,1,1,2,NA,NA
894,"CANDIEIR",762,"Charco da Candieira",-7.576389,40.341667,1409,"PRT","Portugal",323,30,1,2,-15,NA
895,"SANDVIK",763,"Sandvikvatn",5.5,59.283333,128,"NOR","Norway",45,13,2,2,NA,NA
896,"TRIKHON5",764,"Trikhonis 5",21.5,38.6,20,"GRC","Greece",29,0,2,2,110,NA
897,"W_WAW5",590,"Warszawa Wawrzyszew",20.941667,52.286111,98,"POL","Poland",36,0,NA,NA,NA,NA
898,"JARVEOTS",765,"Lake Jarveotsa",24.283333,59.033333,42,"EST","Estonia",38,4,1,2,NA,820
899,"HOVIB",766,"Hovi B",-6.75,61.516667,12,"FRO","Faroe Islands",23,6,2,1,NA,NA
900,"KRAGMJNY",291,"Krageholmssjön",13.733333,55.5,43,"SWE","Sweden",96,0,2,2,NA,NA
901,"KVARNTRA",767,"Lake Kvarnträsk",19.983333,60.35,14,"FIN","Finland",96,3,1,1,NA,NA
902,"BARBAROX",768,"Poço do Barbaroxa de Cima",-8.808889,38.071111,2,"PRT","Portugal",47,6,1,1,NA,NA
903,"BEUF",769,"La Beuffarde",6.423056,46.823611,1111,"FRA","France",54,4,1,2,NA,NA
904,"CARREGUE",770,"Vale da Carregueira",-8.770556,38.094444,8,"PRT","Portugal",54,6,1,1,NA,NA
905,"CHA2",771,"Tourbière de Champlong",7.8075,45.820833,2320,"ITA","Italy",62,2,1,2,15,450
906,"CHEYLAN1",772,"Etang de Cheylade",2.895,45.09,1040,"FRA","France",56,7,2,2,NA,NA
907,"CRISTOL",773,"Cristol Lake",6.633333,44.9975,2248,"FRA","France",35,3,1,2,NA,NA
908,"CROVAN03",774,"Crovani",8.682222,42.469444,10,"FRA","France",44,2,1,1,NA,NA
909,"CROVANI",774,"Crovani",8.682222,42.469444,10,"FRA","France",44,2,1,1,NA,NA
910,"ESTACADA",775,"Lagoa de Albufeira",-9.138889,38.524722,2,"PRT","Portugal",30,3,1,1,NA,NA
911,"FIGUEIRA",776,"Figueira de Baixo",-8.741944,38.314444,3,"PRT","Portugal",44,6,1,1,NA,NA
912,"GB4",777,"Gallanech Beg",-5.501389,56.384444,70,"GBR","United Kingdom",142,15,2,2,NA,NA
913,"GOLFO1",778,"Lagoa do Golfo I",-9.135,38.560556,70,"PRT","Portugal",27,4,1,1,NA,NA
914,"GOLFO2",779,"Lagoa do Golfo II",-9.135,38.560556,70,"PRT","Portugal",20,0,1,1,NA,NA
915,"LCASASW",780,"Lagoa da Casa (Southwest)",-9.144444,38.573611,70,"PRT","Portugal",87,0,1,1,NA,11.5
916,"LGC",781,"Lagaccione",11.85,42.566667,355,"ITA","Italy",197,16,2,2,0,3000
917,"MOINHOS",782,"Ribeira de Moinhos",-8.845833,37.979167,5,"PRT","Portugal",159,11,1,1,NA,NA
918,"N-PEQ",783,"Salada Pequeña",-0.216667,41.033333,357,"ESP","Spain",43,5,1,2,NA,NA
919,"N-SAL",784,"Laguna Salada Chiprana",-0.166667,41.233333,150,"ESP","Spain",39,4,1,2,NA,NA
920,"PEUIL",785,"Peuil Peat Bog",5.643611,45.125,970,"FRA","France",66,4,1,2,NA,NA
921,"PILAZ",786,"Tourbière de Pilaz",7.833333,45.816944,1460,"ITA","Italy",62,4,2,2,0,300
922,"PRGNP",787,"Lago Pratignano",10.819722,44.176111,1307,"ITA","Italy",58,5,2,2,0,1490
923,"RILMAN",788,"Lake Suho Ezero",23.416667,42.133333,1900,"BGR","Bulgaria",56,2,1,2,NA,NA
924,"RLGH3DAT",789,"Round Loch of Glenhead",-4.418889,55.084722,300,"GBR","United Kingdom",66,7,1,2,NA,230
925,"TEANGDAT",790,"Teanga",-7.284722,57.319167,20,"GBR","United Kingdom",61,7,2,2,NA,NA
926,"TRAVESS1",791,"Lagoa Travessa I",-8.7725,38.304444,3,"PRT","Portugal",65,4,1,1,NA,NA
927,"TRAVESS2",792,"Lagoa Travessa II",-8.7725,38.304444,3,"PRT","Portugal",52,8,1,1,NA,NA
928,"VACC3",793,"Vaccarès III",4.543889,43.541667,1,"FRA","France",25,1,1,1,NA,NA
929,"VICO_V1",794,"Lago di Vico",12.166667,42.316667,510,"ITA","Italy",253,17,2,2,0,1400
930,"VILLA",795,"Lac de Villa",7.761111,45.684722,820,"ITA","Italy",139,7,2,2,0,690
931,"BANYOLES",796,"Lake Banyoles",2.75,42.133333,173,"ESP","Spain",110,2,1,2,NA,NA
932,"LGM90D",382,"Lago Grande di Monticchio",15.6,40.944444,1326,"ITA","Italy",245,3,1,2,0,1200
933,"CORREO",797,"Correo",5.983056,44.508333,1090,"FRA","France",180,10,2,2,NA,NA
934,"GIOUX",798,"Gioux",2.643056,45.274444,957,"FRA","France",120,26,1,1,NA,NA
935,"GPILXX",799,"La Grande Pile",6.503889,47.733333,330,"FRA","France",426,0,1,1,NA,NA
936,"HOLZBC",636,"Holzmaar",8.878889,50.116667,425,"DEU","Germany",114,0,NA,NA,NA,NA
937,"KOILADHA",800,"Koiladha",23.1,37.55,-10,"GRC","Greece",31,0,NA,NA,NA,NA
938,"PANBRI",801,"Pannel Bridge",0.675278,50.905833,3,"GBR","United Kingdom",143,8,1,2,NA,NA
939,"BOSHEI1",617,"Bosscherheide",6.094722,51.578611,18,"NLD","Netherlands",38,4,2,2,NA,NA
940,"BRUGEROU",802,"Brugeroux",2.848889,45.147222,1260,"FRA","France",101,8,NA,NA,NA,NA
941,"CLAIR",803,"Loch Clair",-5.343611,57.558889,92,"GBR","United Kingdom",101,7,2,2,NA,450
942,"DOMSJON",804,"Domsjön",12.45,58.3,129,"SWE","Sweden",28,7,2,2,NA,NA
943,"DRIVATI",805,"Lake Drivati",27.066667,55.616667,120,"BLR","Belarus",31,0,NA,NA,NA,NA
944,"DRUIM",806,"Lochan an Druim",-4.7,58.466667,25,"GBR","United Kingdom",73,10,2,2,NA,NA
945,"DURANK1",807,"Lake Duranunlak",28.55,43.666667,4,"BGR","Bulgaria",36,2,1,2,NA,580
946,"DURANK2",807,"Lake Duranunlak",28.55,43.666667,4,"BGR","Bulgaria",48,0,1,2,NA,NA
947,"E26",808,"Black Sea (West)",29.916667,42.833333,0,"BGR","Bulgaria",18,2,1,2,NA,NA
948,"EINICH",809,"Loch Einich",-3.8,57.083333,502,"GBR","United Kingdom",32,3,1,2,NA,200
949,"HOYRAN",810,"Hoyran Gölü",30.875,38.275,920,"TUR","Turkey",27,0,1,2,NA,NA
950,"JC-5-A",258,"Borkovicka blata",14.9,49.216667,415,"CZE","Czech Republic",82,2,2,2,0,650
951,"KOPAIS",811,"Kopais",23.066667,38.483333,10,"GRC","Greece",54,0,1,2,NA,NA
952,"LADIK",812,"Ladik Gölü",36.016667,40.916667,870,"TUR","Turkey",52,0,1,2,NA,NA
953,"LERNA",813,"Lake Lerna",22.75,37.583333,0,"GRC","Greece",59,9,1,2,NA,NA
954,"LLYN-JL",814,"Llyn Gwernan",-3.921389,52.725556,165,"GBR","United Kingdom",66,7,1,2,NA,NA
955,"LOGYLET",815,"Logylet",14.983333,56.3,61,"SWE","Sweden",30,2,1,2,NA,NA
956,"MABO",816,"Mabo Moss",16.066667,58.016667,117,"SWE","Sweden",131,8,2,2,NA,550
957,"MIK1_N",628,"Lake Mikolajki",21.418056,53.768056,116,"POL","Poland",119,2,2,2,NA,NA
958,"MUCKROSS",817,"Muckross",-9.516667,52.016667,30,"IRL","Ireland",128,0,1,1,NA,NA
959,"LUXRODEN",818,"Rodenbourg Bretzboesh",6.27,49.691667,285,"LUX","Luxembourg",40,3,1,2,NA,NA
960,"NIZHNIVA",819,"Nizhnevartovsk",76.666667,62,56,"RUS","Russia",37,10,1,2,NA,NA
961,"NOVO-USP",820,"Novo-Uspenka",84.166667,56.616667,150,"RUS","Russia",40,5,NA,NA,NA,NA
962,"PADUL3",725,"Padul",-3.066667,37,785,"ESP","Spain",89,17,1,1,NA,NA
963,"PIERFOL",821,"Pierre Folle",-1.893056,47.018889,2,"FRA","France",23,1,1,2,NA,150
964,"PINARBAS",822,"Pinarbasi",30.05,37.466667,970,"TUR","Turkey",38,0,1,2,NA,NA
965,"R43-90",823,"Rybachiy",32.366667,69.633333,60,"RUS","Russia",9,7,2,2,NA,91
966,"RL300",468,"Rotsee",8.325833,47.075833,428,"CHE","Switzerland",111,20,2,2,530,920
967,"SANNEN",824,"Sännen",15.383333,56.316667,62,"SWE","Sweden",15,6,2,1,NA,NA
968,"SAVI",825,"Mire Saviku",27.233333,58.4,30,"EST","Estonia",74,6,2,2,NA,695
969,"SERTAL",826,"Pico del Sertal",-4.436111,43.215556,940,"ESP","Spain",9,3,1,2,NA,NA
970,"STAVT",827,"Stav",35.4,50.416667,155,"UKR","Ukraine",16,0,1,2,NA,NA
971,"STON2",828,"Stoyanov 2",24.633333,50.383333,198,"UKR","Ukraine",29,8,2,2,NA,NA
972,"STURSIN",829,"Saint-Ursin",-0.253333,48.519444,234,"FRA","France",75,10,1,2,NA,NA
973,"TSHM-2",830,"Sredna Gora Mountains Peat Bog",24.833333,42.833333,1300,"BGR","Bulgaria",34,4,1,2,NA,NA
974,"VINDERH",831,"Vinderhoute",3.622778,51.079167,4,"BEL","Belgium",53,0,1,2,1200,NA
975,"VRACOV1",589,"Vracov",17.202778,48.977778,192,"CZE","Czech Republic",53,6,2,2,0,270
976,"XINIAS",832,"Lake Xinias",22.266667,39.05,500,"GRC","Greece",91,5,1,2,NA,NA
977,"YENICAGA",833,"Yeniçaga Gölü",32.033333,40.783333,987,"TUR","Turkey",55,0,1,2,NA,NA
978,"SCHWEMD3",634,"Schwemm",12.3,47.658333,671,"AUT","Austria",87,7,2,2,0,850
979,"ABANT",834,"Abant Gölü",31.283333,40.6,1327,"TUR","Turkey",65,0,1,2,NA,NA
980,"AE3",51,"Aegelsee",7.543611,46.648611,989,"CHE","Switzerland",120,10,2,2,0,856.5
981,"AKGOL",835,"Akgöl Adabag",33.733333,37.5,999,"TUR","Turkey",41,3,1,2,NA,NA
982,"ANNA",836,"Tourbière de Santa Anna",7.654167,45.858333,2304,"ITA","Italy",25,4,1,2,0,145
983,"BBURN3",837,"Bigholm Burn",-3.0725,55.120278,160,"GBR","United Kingdom",30,5,1,1,NA,NA
984,"BERGS",838,"Bergsjön",13.5,58.2,306,"SWE","Sweden",16,1,NA,NA,NA,NA
985,"BOGROOS",839,"The Bog [Roos]",-0.066667,53.733333,5,"GBR","United Kingdom",24,5,1,2,NA,NA
986,"OYKJA",38,"Vestre Oykjamyrtorn",6,59.816667,570,"NOR","Norway",99,11,2,2,NA,810
987,"TRETTE",39,"Trettetjorn",7,60.716667,810,"NOR","Norway",53,9,2,2,NA,NA
988,"BISOCA",840,"Bisoca",26.666667,45.533333,900,"ROU","Romania",145,12,1,2,NA,NA
989,"LUCI",841,"Luci",25.75,46.266667,1079,"ROU","Romania",177,12,1,1,NA,NA
990,"STIOL3",842,"Poiana Stiol",24.816667,47.583333,1540,"ROU","Romania",88,9,1,1,NA,NA
991,"FOULA6B",843,"Foula",-2.1,60.15,170,"GBR","United Kingdom",44,5,2,2,NA,NA
992,"LAX",844,"Loch Laxford",-5,58.366667,137,"GBR","United Kingdom",42,5,2,2,NA,NA
993,"BISKUP4",845,"Biskupinskie Lake",17.733333,52.783333,80,"POL","Poland",145,0,2,2,NA,NA
994,"DRUZ2",846,"Jezioro Druzno",19.466667,54.116667,-1,"POL","Poland",81,4,2,2,NA,NA
995,"GLEBOCZ",847,"Gleboczek Lake",17.633056,52.649167,95,"POL","Poland",103,0,2,2,NA,NA
996,"GODZISZ",848,"Godziszewskie Lake",18.552778,54.093333,71,"POL","Poland",86,0,2,2,NA,NA
997,"BOZEJEW",849,"Bozejewice",18.233333,52.683333,87,"POL","Poland",87,3,1,1,NA,NA
998,"MSUSZEK",850,"Maly Suszek",17.772778,53.725556,115,"POL","Poland",144,12,2,2,NA,NA
999,"RUDNICK",851,"Rudnickie Male",18.750278,53.433611,23,"POL","Poland",75,10,2,2,NA,NA
1000,"STRAZ",852,"Strazym Lake",19.461111,53.333333,71,"POL","Poland",115,11,2,2,NA,NA
1001,"FLAJE",853,"Flaje Kiefern",13.533333,50.7,760,"CZE","Czech Republic",43,3,2,2,0,340
1002,"SLAWSKO",854,"Slawsko",18.25,52.666667,80,"POL","Poland",66,3,1,2,NA,NA
1003,"DRUZ1",846,"Jezioro Druzno",19.466667,54.116667,-1,"POL","Poland",109,0,1,1,NA,NA
1004,"MUKRZ1",855,"Mukrz",18.118611,53.517222,103,"POL","Poland",152,12,2,1,NA,NA
1005,"MUKRZ2",855,"Mukrz",18.118611,53.517222,103,"POL","Poland",119,11,2,1,NA,NA
1006,"WOLB",856,"Wolbrom",19.766667,50.383333,375,"POL","Poland",62,9,2,2,NA,NA
1007,"DURY1",857,"Dury",18.358333,53.638889,95,"POL","Poland",100,4,1,2,NA,NA
1008,"SWIETO",858,"Swietokrzyskie Lake",17.598611,52.544444,103,"POL","Poland",175,12,2,2,NA,NA
1009,"SICIE",859,"Sicienko",16,53.166667,69,"POL","Poland",120,12,2,2,NA,NA
1010,"ZAWA",860,"Zawada",18.584722,53.616667,74,"POL","Poland",82,8,2,1,NA,NA
1011,"ZABIJAK",861,"Zabijak",18.448056,53.576111,81,"POL","Poland",128,3,2,1,NA,NA
1012,"OSTROWIT",862,"Ostrowite",17.598611,53.790278,121,"POL","Poland",125,10,2,2,NA,NA
1013,"JEZEWO",863,"Jezewo",18.539444,53.590278,80,"POL","Poland",80,0,NA,NA,NA,NA
1014,"DRZYCIM",864,"Drzycim",18.293889,53.540278,95,"POL","Poland",88,0,NA,NA,NA,NA
1015,"STFRONTA",865,"Saint Front Lake",4.169167,44.980556,1234,"FRA","France",511,5,1,1,NA,215
1016,"RAA10",866,"Lake Racou",2.008333,42.554167,2000,"FRA","France",47,0,NA,NA,NA,NA
1017,"RAA23",866,"Lake Racou",2.008333,42.554167,2000,"FRA","France",48,0,NA,NA,NA,NA
1018,"RAB20",866,"Lake Racou",2.008333,42.554167,2000,"FRA","France",37,0,NA,NA,NA,NA
1019,"AC4HOLO",867,"Lago dell'Accesa",10.891667,42.986667,160,"ITA","Italy",132,8,2,2,0,1249
1020,"AC4LATE",867,"Lago dell'Accesa",10.891667,42.986667,160,"ITA","Italy",113,0,2,2,0,1249
1021,"JAMMERTA",868,"Jammertal",9.728889,48.1,578,"DEU","Germany",136,0,2,2,NA,NA
1022,"HIPPER",869,"Hipper Sick",-1.583333,53.216667,290,"GBR","United Kingdom",71,1,1,2,NA,NA
1023,"BK0702R",870,"Bradford Kaims",-1.761111,55.588889,46,"GBR","United Kingdom",46,0,NA,NA,NA,NA
1024,"BREITNAU",871,"Breitnau-Neuhof",8.066667,47.933333,986,"DEU","Germany",77,14,2,2,NA,NA
1025,"GDU",872,"Durchenbergried",8.983333,47.783333,432,"DEU","Germany",498,50,2,2,NA,510
1026,"FEUENRIE",873,"Feuenried",8.916667,47.75,407,"DEU","Germany",193,33,2,2,NA,NA
1027,"HOB",874,"Hornstaad/Bodensee",9.016667,47.7,385,"DEU","Germany",860,24,2,2,NA,NA
1028,"STEERMOS",875,"Steerenmoos",8.2,47.8,1000,"DEU","Germany",277,18,2,2,NA,NA
1029,"WAGENBOD",876,"Wangen/Bodensee",8.933333,47.666667,395,"DEU","Germany",177,0,2,2,NA,NA
1030,"NUSS1",877,"Nussbaumer Seen",8.817778,47.615278,444,"CHE","Switzerland",175,0,1,1,NA,NA
1031,"NUSS4",877,"Nussbaumer Seen",8.817778,47.615278,444,"CHE","Switzerland",112,11,2,2,0,850
1032,"NUSS8",877,"Nussbaumer Seen",8.817778,47.615278,444,"CHE","Switzerland",105,0,1,1,NA,NA
1033,"ABBO",878,"Abborrtjärnen",14.45,63.883333,387,"SWE","Sweden",107,6,2,2,NA,NA
1034,"HOLT",879,"Holtjärnen",14.916667,60.65,232,"SWE","Sweden",101,6,2,2,NA,NA
1035,"KLOT",880,"Klotjärnen",16.533333,61.816667,235,"SWE","Sweden",111,6,2,2,NA,800
1036,"STYG",881,"Styggtjärnen",13.566667,62.316667,715,"SWE","Sweden",78,6,2,2,NA,NA
1037,"TREPPEL",882,"Grosser Treppelsee",14.452778,52.15,52,"DEU","Germany",106,6,2,2,NA,NA
1038,"RAC20",866,"Lake Racou",2.008333,42.554167,2000,"FRA","France",78,8,1,2,NA,NA
1039,"FATE",883,"Lago delle Fate",7.1,44.266667,2130,"ITA","Italy",30,4,2,2,0,280
1040,"MONDOVI",884,"Refugio Mondovi",7.733333,44.183333,1760,"ITA","Italy",36,6,2,2,0,420
1041,"ORGIALS",885,"Laghi dell'Orgials",7.133333,44.233333,2240,"ITA","Italy",51,5,1,2,0,370
1042,"BIECAI",886,"Torbiera del Biecai",7.7,44.2,1920,"ITA","Italy",57,5,2,2,0,260
1043,"KOZLI",887,"Kozli",14.025833,49.376389,460,"CZE","Czech Republic",22,2,1,2,0,140
1044,"GORSFAWR",888,"Gors Fawr Bog",-4.718333,51.931667,190,"GBR","United Kingdom",54,4,1,2,NA,200
1045,"BH2",889,"Lake Urmia II",45.375833,37.793611,1265,"IRN","Iran, Islamic Republic of",93,2,1,2,NA,NA
1046,"BH3",889,"Lake Urmia II",45.375833,37.793611,1265,"IRN","Iran, Islamic Republic of",87,0,NA,NA,NA,NA
1047,"RAA37",866,"Lake Racou",2.008333,42.554167,2000,"FRA","France",93,0,NA,NA,NA,NA
1048,"BEGBUNAR",890,"Peat-bog Begbunar",22.55,42.15,1750,"BGR","Bulgaria",22,3,2,2,NA,NA
1049,"CUAI",891,"Montes do Buio Cuadramón",-7.534722,43.474167,700,"ESP","Spain",27,0,NA,NA,NA,NA
1050,"CUAII",891,"Montes do Buio Cuadramón",-7.534722,43.474167,700,"ESP","Spain",20,1,1,2,NA,NA
1051,"LUITEL",892,"Col Luitel",5.849722,45.088333,1250,"FRA","France",72,3,1,2,NA,NA
1052,"TORBENOV",893,"Novienky peat bog",54.751111,52.24,197,"RUS","Russia",17,1,1,2,NA,NA
1053,"LANZBOG",894,"Lanzahíta",-4.935833,40.222222,588,"ESP","Spain",51,6,NA,NA,NA,NA
1054,"COULVAIN",895,"Coulvain",-0.716667,49.066667,145,"FRA","France",25,2,1,2,NA,NA
1055,"AELBI",896,"Älbi Flue",7.976389,46.598611,1850,"CHE","Switzerland",108,0,2,2,0,33
1056,"ALETSW",897,"Aletschwald",8.025556,46.389722,2017,"CHE","Switzerland",57,7,2,2,0,435
1057,"ALETSW1",897,"Aletschwald",8.025556,46.389722,2017,"CHE","Switzerland",51,7,1,1,NA,NA
1058,"ALETSW2",897,"Aletschwald",8.025556,46.389722,2017,"CHE","Switzerland",49,0,1,1,NA,NA
1059,"ALETSCHW",897,"Aletschwald",8.025556,46.389722,2017,"CHE","Switzerland",108,0,2,2,1.5,32
1060,"AMBY80",58,"Hières sur Amby",5.283333,45.790833,227,"FRA","France",122,4,0,2,NA,NA
1061,"BACHALP",898,"Bachalpsee",8.020833,46.6694444,2265,"CHE","Switzerland",152,4,2,2,1,1000
1062,"BALDEGG",899,"Baldeggersee",8.266667,47.2,463,"CHE","Switzerland",109,0,1,2,0,40
1063,"BASR",900,"La Grande Basse",6.951389,48.048333,945,"FRA","France",51,4,2,2,NA,NA
1064,"BELALP1",901,"Alp Lüsga Belalp 1",7.590278,46.230833,2330,"CHE","Switzerland",29,4,2,2,0,162
1065,"BELALP2",902,"Alp Lüsga Belalp 2",7.9775,46.384444,2310,"CHE","Switzerland",25,3,2,2,0,145
1066,"BEVERA",903,"Lago di Bévera",8.894722,45.8525,340,"ITA","Italy",11,0,1,2,0,21
1067,"BIBER",904,"Bibersee",8.466667,47.206944,429,"CHE","Switzerland",286,26,2,2,0,650
1068,"BITSCH3",905,"Bitsch-Naters",7.991667,46.341111,1089,"CHE","Switzerland",90,8,2,2,30,628
1069,"BODMEN1",906,"Bodmen Alp Bel",7.964444,46.363056,1916,"CHE","Switzerland",14,0,1,1,NA,NA
1070,"BODMEN2",906,"Bodmen Alp Bel",7.964444,46.363056,1916,"CHE","Switzerland",14,0,1,1,NA,NA
1071,"BODMEN3",906,"Bodmen Alp Bel",7.964444,46.363056,1916,"CHE","Switzerland",11,0,1,1,NA,NA
1072,"BRETAYE",907,"Lac de Bretaye",7.072222,46.326111,1786,"CHE","Switzerland",16,0,1,2,1,30
1073,"BUNSCHLE",908,"Untere Bunschleren Boltigen",7.419167,46.600278,1676,"CHE","Switzerland",58,0,1,1,NA,NA
1074,"CINUSKEL",909,"Cinuskel",10.023611,46.643611,1615,"CHE","Switzerland",12,0,1,1,NA,NA
1075,"CLAP68",147,"Clapeyret",7.238889,44.147222,2260,"FRA","France",45,0,1,2,NA,NA
1076,"DOSSAC1",910,"Dossaccio Bormio",10.337222,46.470556,1698,"ITA","Italy",37,0,1,1,NA,NA
1077,"DOSSAC2",910,"Dossaccio Bormio",10.337222,46.470556,1698,"ITA","Italy",30,0,1,1,NA,NA
1078,"DOSSAC3",910,"Dossaccio Bormio",10.337222,46.470556,1698,"ITA","Italy",12,0,1,1,NA,NA
1079,"DOSSACC",910,"Dossaccio Bormio",10.337222,46.470556,1698,"ITA","Italy",78,5,2,2,0,920
1080,"EGGEN",911,"Eggen ob Blatten",7.990556,46.371944,1654,"CHE","Switzerland",78,16,2,2,12,425
1081,"EGGEN2",911,"Eggen ob Blatten",7.990556,46.371944,1654,"CHE","Switzerland",42,0,1,1,NA,NA
1082,"EGGEN3",911,"Eggen ob Blatten",7.990556,46.371944,1654,"CHE","Switzerland",40,0,1,1,NA,NA
1083,"EGGEN56",911,"Eggen ob Blatten",7.990556,46.371944,1654,"CHE","Switzerland",50,6,1,1,NA,NA
1084,"GRUERE",912,"Etang de la Gruère",7.05,47.240556,1012,"CHE","Switzerland",27,4,2,2,NA,NA
1085,"EGR2G",912,"Etang de la Gruère",7.05,47.240556,1012,"CHE","Switzerland",44,13,NA,NA,NA,NA
1086,"EGR2A",912,"Etang de la Gruère",7.05,47.240556,1012,"CHE","Switzerland",141,32,2,2,NA,NA
1087,"FELDD2",913,"Feld Alp Holzmatten",8.004167,46.659167,2148,"CHE","Switzerland",10,2,1,2,195,240
1088,"GAENSEMO",914,"Gänsemoos Schwarzenburg",7.356389,46.834722,799,"CHE","Switzerland",52,10,2,2,0,600
1089,"GAMPERF",915,"Gamperfin",9.381111,47.171389,1320,"CHE","Switzerland",66,10,2,2,0,490
1090,"GANNA",916,"Lago di Ganna",8.8275,45.8975,452,"ITA","Italy",22,0,2,2,0,22
1091,"GERZEN",917,"Gerzensee",7.546944,46.830556,603,"CHE","Switzerland",13,0,1,2,0,24
1092,"GONDO",918,"Gondo Alpjen",8.113333,46.211667,1724,"CHE","Switzerland",42,5,2,2,0,470
1093,"GIORGIO",919,"Monte San Giorgio",8.953889,45.909444,990,"CHE","Switzerland",7,0,1,2,0,30
1094,"GRAECH51",920,"Grächen See",7.845,46.195556,1725,"CHE","Switzerland",44,6,1,1,NA,NA
1095,"GRAECHEN",920,"Grächen See",7.845,46.195556,1725,"CHE","Switzerland",81,12,2,2,0,1102
1096,"GREICH2",921,"Greicheralp Riederalp",8.030278,46.379722,1934,"CHE","Switzerland",46,5,2,2,0,440
1097,"GRINDJI",922,"Grindjisee",7.791111,46.011667,2343,"CHE","Switzerland",10,0,1,2,0,13
1098,"HAGELSEE",923,"Hagelseeli",8.035278,46.672778,2346,"CHE","Switzerland",51,0,1,2,0,34.3
1099,"GRUNSEE",924,"Grünsee Reschenscheideck",10.478056,46.862778,1840,"ITA","Italy",58,3,2,2,0,585
1100,"HANGSTLI",925,"Hängstli",7.833056,46.794167,1252,"CHE","Switzerland",47,3,2,2,0,460
1101,"HELLELEN",926,"Mittlere Hellelen",7.844167,46.283056,1538,"CHE","Switzerland",31,3,1,1,NA,NA
1102,"ZENEGGEN",926,"Mittlere Hellelen",7.844167,46.283056,1538,"CHE","Switzerland",95,11,2,2,0,840
1103,"HILAIRE1",927,"Saint Hilaire du Rosier",5.256667,45.070833,190,"FRA","France",41,0,1,2,NA,NA
1104,"HILAIRE2",927,"Saint Hilaire du Rosier",5.256667,45.070833,190,"FRA","France",55,2,1,2,NA,NA
1105,"HINTERB",928,"Hinterburgseeli",8.068889,46.718889,1519,"CHE","Switzerland",100,8,2,2,0,1523
1106,"ILFUORN",929,"Il Fuorn",10.21,46.662778,1805,"CHE","Switzerland",23,3,1,1,NA,NA
1107,"STRALDZA",930,"Straldzha mire",26.772778,42.630833,137,"BGR","Bulgaria",28,3,2,2,NA,NA
1108,"LACDAI",931,"Lac d'Aï",7.005,46.363889,1894,"CHE","Switzerland",9,0,1,2,0,17
1109,"LAINAIR",932,"Lai Nair Schuls-Tarasp",10.277778,46.776111,1551,"CHE","Switzerland",78,5,2,2,0,650
1110,"LEYSIN",933,"Leysin Les Léchières",7.021667,46.347222,1265,"CHE","Switzerland",44,0,2,2,165,370
1111,"LINDEN",934,"Linden",7.686111,46.850833,900,"CHE","Switzerland",130,12,2,2,0,1300
1112,"LL160A",332,"Lobsigensee",7.298056,47.030556,514,"CHE","Switzerland",128,19,1,1,NA,NA
1113,"LQ120",332,"Lobsigensee",7.298056,47.030556,514,"CHE","Switzerland",165,0,1,1,NA,NA
1114,"LQ150E",332,"Lobsigensee",7.298056,47.030556,514,"CHE","Switzerland",71,14,1,1,NA,NA
1115,"LQ170",332,"Lobsigensee",7.298056,47.030556,514,"CHE","Switzerland",117,0,NA,NA,NA,NA
1116,"LQ170D",332,"Lobsigensee",7.298056,47.030556,514,"CHE","Switzerland",63,19,1,1,NA,NA
1117,"LQ68",332,"Lobsigensee",7.298056,47.030556,514,"CHE","Switzerland",94,0,NA,NA,NA,NA
1118,"LQ80",332,"Lobsigensee",7.298056,47.030556,514,"CHE","Switzerland",66,1,1,1,NA,NA
1119,"LQ82",332,"Lobsigensee",7.298056,47.030556,514,"CHE","Switzerland",52,0,NA,NA,NA,NA
1120,"JUFPLAN",935,"Juf Plan",10.259722,46.626389,2222,"CHE","Switzerland",15,2,2,2,0,67
1121,"HOPSTOP",936,"Hopschensee",8.023056,46.2525,2026,"CHE","Switzerland",71,2,2,2,0,54
1122,"HOPSCHEN",936,"Hopschensee",8.023056,46.2525,2026,"CHE","Switzerland",68,13,2,2,0,600
1123,"HOPSCH1",936,"Hopschensee",8.023056,46.2525,2026,"CHE","Switzerland",49,0,1,1,NA,NA
1124,"CHUTTI4",937,"Chutti Boltigen",7.3925,46.633333,952,"CHE","Switzerland",22,4,1,1,NA,NA
1125,"CHUTTI3",937,"Chutti Boltigen",7.3925,46.633333,952,"CHE","Switzerland",30,0,1,1,NA,NA
1126,"CHUTTI",937,"Chutti Boltigen",7.3925,46.633333,952,"CHE","Switzerland",42,0,2,2,488,650
1127,"LUISSEL",938,"Etang de Luissel Bex",7.0175,46.237222,522,"CHE","Switzerland",31,3,2,2,65,472
1128,"MACUN",939,"Macun Val Zeznina ob Zernez",10.132778,46.728333,2626,"CHE","Switzerland",24,0,1,1,NA,NA
1129,"MONTCARR",940,"Mont Carré Hérémence",7.368611,46.153889,2295,"CHE","Switzerland",39,3,2,2,0,420
1130,"LOERM1",941,"Lörmoos Bern",7.413333,46.983889,606,"CHE","Switzerland",23,1,1,1,NA,NA
1131,"LOERM2",941,"Lörmoos Bern",7.413333,46.983889,606,"CHE","Switzerland",18,0,1,1,NA,NA
1132,"LOERMOOS",941,"Lörmoos Bern",7.413333,46.983889,606,"CHE","Switzerland",34,0,2,2,292,366
1133,"MOTTA",942,"Motta Naluns",10.264722,46.810833,2215,"CHE","Switzerland",54,13,2,2,0,300
1134,"DOVJOK",943,"Dovjok Swamp",28.25,48.75,274,"UKR","Ukraine",48,10,2,2,NA,480
1135,"KARDAS",944,"Kardashinski Swamp",32.616667,46.516667,4,"UKR","Ukraine",38,13,2,2,NA,NA
1136,"NILEDS2",945,"Nile Delta S2",31.6,31.3,1,"EGY","Egypt",4,2,1,2,NA,NA
1137,"NILEDS6",946,"Nile Delta S6",31.716667,31.108333,2,"EGY","Egypt",4,2,1,2,NA,NA
1138,"OBERAAR",947,"Oberaar",8.255556,46.547222,2380,"CHE","Switzerland",42,2,2,2,0,80
1139,"OBERGEST",948,"Obergestelen Zweisimmen",7.435,46.5825,1810,"CHE","Switzerland",35,0,NA,NA,NA,NA
1140,"OPPLIGEN",949,"Oppligen",7.594167,46.831111,590,"CHE","Switzerland",45,0,1,1,NA,NA
1141,"MOKHOVOE",950,"Mokhovoye",64.25,53.766667,178,"KAZ","Kazakhstan",33,5,1,2,NA,NA
1142,"PILLON",951,"Pillon Gsteig-Diablerets",7.198611,46.359722,1686,"CHE","Switzerland",53,9,2,2,0,400
1143,"RIFFEL",952,"Riffelsee",7.761944,45.983333,2762,"CHE","Switzerland",18,0,2,2,0,18
1144,"RL305",468,"Rotsee",8.325833,47.075833,428,"CHE","Switzerland",68,41,2,2,900,1060
1145,"RL170",468,"Rotsee",8.325833,47.075833,428,"CHE","Switzerland",44,0,1,1,NA,NA
1146,"ROBII33",953,"Alpi di Robièi Val Bavona",8.518333,46.445,1936,"CHE","Switzerland",46,7,2,2,0,600
1147,"ROBII30",953,"Alpi di Robièi Val Bavona",8.518333,46.445,1936,"CHE","Switzerland",46,2,1,1,NA,NA
1148,"ROB316",953,"Alpi di Robièi Val Bavona",8.518333,46.445,1936,"CHE","Switzerland",37,2,1,1,NA,NA
1149,"PRRODET",954,"Praz Rodet",6.173611,46.566667,1040,"CHE","Switzerland",142,18,2,2,0,472
1150,"PALLUNG",955,"Palü Lunga ob Ramosch",10.378611,46.85,1903,"CHE","Switzerland",20,0,1,1,NA,NA
1151,"SEEBERG",956,"Seebergsee",7.443333,46.577222,1835,"CHE","Switzerland",185,0,1,2,0,417
1152,"TREPALLE",957,"Trepalle Livigno",10.183056,46.518889,2020,"ITA","Italy",12,0,1,1,NA,NA
1153,"ROTMOOS",958,"Rotmoos-Eriz",7.843056,46.795556,1190,"CHE","Switzerland",57,0,1,2,0,550
1154,"SAANENM",959,"Saanenmöser",7.311667,46.518611,1283,"CHE","Switzerland",51,0,1,2,34.5,128
